[
  {
    "managementNo": "3023000064",
    "steepSlopeName": "충청 경부고속77",
    "implementationOffice": "충청본부",
    "managementTypeCode": "국가철도공단",
    "departmentName": "국가철도공단",
    "province": "충청북도",
    "city": "청주시 서원구",
    "district": "현도면",
    "detailAddress": "중척리 ",
    "mainLotNumber": "29",
    "subLotNumber": "4",
    "lat": 36.444941,
    "lng": 127.417349,
    "grade": "B"
  },
  {
    "managementNo": "3611000125",
    "steepSlopeName": "충청 경부고속66",
    "implementationOffice": "충청본부",
    "managementTypeCode": "국가철도공단",
    "departmentName": "국가철도공단",
    "province": "충청북도",
    "city": "청주시 흥덕구",
    "district": "강내면",
    "detailAddress": "궁현리 ",
    "mainLotNumber": "250",
    "subLotNumber": "",
    "lat": 36.530964,
    "lng": 127.394194,
    "grade": "B"
  },
  {
    "managementNo": "3611000126",
    "steepSlopeName": "충청 경부고속67",
    "implementationOffice": "충청본부",
    "managementTypeCode": "국가철도공단",
    "departmentName": "국가철도공단",
    "province": "충청북도",
    "city": "청주시 흥덕구",
    "district": "강내면",
    "detailAddress": "궁현리 ",
    "mainLotNumber": "250",
    "subLotNumber": "",
    "lat": 36.50139,
    "lng": 127.402855,
    "grade": "B"
  },
  {
    "managementNo": "3611000127",
    "steepSlopeName": "충청 경부고속68",
    "implementationOffice": "충청본부",
    "managementTypeCode": "국가철도공단",
    "departmentName": "국가철도공단",
    "province": "충청북도",
    "city": "청주시 서원구",
    "district": "남이면",
    "detailAddress": "구미리 ",
    "mainLotNumber": "29",
    "subLotNumber": "4",
    "lat": 36.498488,
    "lng": 127.403691,
    "grade": "B"
  },
  {
    "managementNo": "4311100002",
    "steepSlopeName": "주중1",
    "implementationOffice": "지자체",
    "managementTypeCode": "지자체(시도)",
    "departmentName": "청원구 건축과",
    "province": "충청북도",
    "city": "청주시 청원구",
    "district": "주중동",
    "detailAddress": " 522-1번지",
    "mainLotNumber": "",
    "subLotNumber": "",
    "lat": 36.680301,
    "lng": 127.483796,
    "grade": "C"
  },
  {
    "managementNo": "4311100003",
    "steepSlopeName": "주중2",
    "implementationOffice": "지자체",
    "managementTypeCode": "지자체(시도)",
    "departmentName": "청원구 건축과",
    "province": "충청북도",
    "city": "청주시 청원구",
    "district": "주중동",
    "detailAddress": " 120-4번지",
    "mainLotNumber": "",
    "subLotNumber": "",
    "lat": 36.679542,
    "lng": 127.495856,
    "grade": "C"
  },
  {
    "managementNo": "4311100004",
    "steepSlopeName": "주중3",
    "implementationOffice": "지자체",
    "managementTypeCode": "지자체(시도)",
    "departmentName": "청원구 건축과",
    "province": "충청북도",
    "city": "청주시 청원구",
    "district": "주중동",
    "detailAddress": " 382-6번지",
    "mainLotNumber": "",
    "subLotNumber": "",
    "lat": 36.688611,
    "lng": 127.49,
    "grade": "C"
  },
  {
    "managementNo": "4311100005",
    "steepSlopeName": "오동1",
    "implementationOffice": "지자체",
    "managementTypeCode": "지자체(시도)",
    "departmentName": "청원구 건축과",
    "province": "충청북도",
    "city": "청주시 청원구",
    "district": "오동동",
    "detailAddress": " 329-2번지",
    "mainLotNumber": "",
    "subLotNumber": "",
    "lat": 36.686389,
    "lng": 127.482778,
    "grade": "C"
  },
  {
    "managementNo": "4311100006",
    "steepSlopeName": "오동2",
    "implementationOffice": "지자체",
    "managementTypeCode": "지자체(시도)",
    "departmentName": "청원구 건축과",
    "province": "충청북도",
    "city": "청주시 청원구",
    "district": "오동동",
    "detailAddress": " 6-5번지",
    "mainLotNumber": "",
    "subLotNumber": "",
    "lat": 36.688333,
    "lng": 127.481944,
    "grade": "B"
  },
  {
    "managementNo": "4311100007",
    "steepSlopeName": "사천1",
    "implementationOffice": "지자체",
    "managementTypeCode": "지자체(시도)",
    "departmentName": "청원구 건축과",
    "province": "충청북도",
    "city": "청주시 청원구",
    "district": "사천동",
    "detailAddress": " ",
    "mainLotNumber": "161",
    "subLotNumber": "13",
    "lat": 36.668611,
    "lng": 127.475833,
    "grade": "B"
  },
  {
    "managementNo": "4311100008",
    "steepSlopeName": "사천2",
    "implementationOffice": "지자체",
    "managementTypeCode": "지자체(시도)",
    "departmentName": "청원구 건축과",
    "province": "충청북도",
    "city": "청주시 청원구",
    "district": "사천동",
    "detailAddress": " ",
    "mainLotNumber": "183",
    "subLotNumber": "1",
    "lat": 36.665556,
    "lng": 127.474444,
    "grade": "C"
  },
  {
    "managementNo": "4311100009",
    "steepSlopeName": "용암1",
    "implementationOffice": "지자체",
    "managementTypeCode": "지자체(시도)",
    "departmentName": "상당구 건축과",
    "province": "충청북도",
    "city": "청주시 상당구",
    "district": "용암동",
    "detailAddress": " 외 2필지(259-4,259-7)",
    "mainLotNumber": "259",
    "subLotNumber": "3",
    "lat": 36.616667,
    "lng": 127.528333,
    "grade": "C"
  },
  {
    "managementNo": "4311100010",
    "steepSlopeName": "운동1",
    "implementationOffice": "지자체",
    "managementTypeCode": "지자체(시도)",
    "departmentName": "상당구 건축과",
    "province": "충청북도",
    "city": "청주시 상당구",
    "district": "운동동",
    "detailAddress": " 478-18",
    "mainLotNumber": "",
    "subLotNumber": "",
    "lat": 36.595556,
    "lng": 127.515278,
    "grade": "C"
  },
  {
    "managementNo": "4311100011",
    "steepSlopeName": "운동2",
    "implementationOffice": "지자체",
    "managementTypeCode": "지자체(시도)",
    "departmentName": "상당구 건축과",
    "province": "충청북도",
    "city": "청주시 상당구",
    "district": "운동동",
    "detailAddress": " 478-15",
    "mainLotNumber": "",
    "subLotNumber": "",
    "lat": 36.595833,
    "lng": 127.515,
    "grade": "B"
  },
  {
    "managementNo": "4311100012",
    "steepSlopeName": "월오1",
    "implementationOffice": "지자체",
    "managementTypeCode": "지자체(시도)",
    "departmentName": "상당구 건축과",
    "province": "충청북도",
    "city": "청주시 상당구",
    "district": "월오동",
    "detailAddress": " ",
    "mainLotNumber": "528",
    "subLotNumber": "9",
    "lat": 36.665278,
    "lng": 127.506111,
    "grade": "B"
  },
  {
    "managementNo": "4311100013",
    "steepSlopeName": "용담1",
    "implementationOffice": "지자체",
    "managementTypeCode": "지자체(시도)",
    "departmentName": "상당구 건축과",
    "province": "충청북도",
    "city": "청주시 상당구",
    "district": "용담동",
    "detailAddress": " ",
    "mainLotNumber": "463",
    "subLotNumber": "",
    "lat": 36.641624,
    "lng": 127.509227,
    "grade": "B"
  },
  {
    "managementNo": "4311100014",
    "steepSlopeName": "수동",
    "implementationOffice": "지자체",
    "managementTypeCode": "지자체(시군구)",
    "departmentName": "공원관리과",
    "province": "충청북도",
    "city": "청주시 상당구",
    "district": "수동",
    "detailAddress": " ",
    "mainLotNumber": "112",
    "subLotNumber": "15",
    "lat": 36.640556,
    "lng": 127.496944,
    "grade": "B"
  },
  {
    "managementNo": "4311100016",
    "steepSlopeName": "탑동",
    "implementationOffice": "지자체",
    "managementTypeCode": "지자체(시도)",
    "departmentName": "공동주택과",
    "province": "충청북도",
    "city": "청주시 상당구",
    "district": "탑동",
    "detailAddress": " (48)",
    "mainLotNumber": "261",
    "subLotNumber": "",
    "lat": 36.627222,
    "lng": 127.500278,
    "grade": "C"
  },
  {
    "managementNo": "4311100017",
    "steepSlopeName": "내덕3",
    "implementationOffice": "지자체",
    "managementTypeCode": "지자체(시도)",
    "departmentName": "청원구 건설과",
    "province": "충청북도",
    "city": "청주시 청원구",
    "district": "내덕동",
    "detailAddress": " ",
    "mainLotNumber": "22",
    "subLotNumber": "1",
    "lat": 36.657222,
    "lng": 127.496944,
    "grade": "B"
  },
  {
    "managementNo": "4311100018",
    "steepSlopeName": "사천3",
    "implementationOffice": "지자체",
    "managementTypeCode": "지자체(시도)",
    "departmentName": "청원구 건설과",
    "province": "충청북도",
    "city": "청주시 청원구",
    "district": "사천동",
    "detailAddress": " ",
    "mainLotNumber": "229",
    "subLotNumber": "1",
    "lat": 36.662778,
    "lng": 127.478889,
    "grade": "C"
  },
  {
    "managementNo": "4311100019",
    "steepSlopeName": "사천4",
    "implementationOffice": "지자체",
    "managementTypeCode": "지자체(시도)",
    "departmentName": "공동주택과",
    "province": "충청북도",
    "city": "청주시 청원구",
    "district": "사천동",
    "detailAddress": " ",
    "mainLotNumber": "437",
    "subLotNumber": "",
    "lat": 36.661944,
    "lng": 127.475278,
    "grade": "C"
  },
  {
    "managementNo": "4311100020",
    "steepSlopeName": "운동3",
    "implementationOffice": "지자체",
    "managementTypeCode": "지자체(시도)",
    "departmentName": "상당구 건설과",
    "province": "충청북도",
    "city": "청주시 상당구",
    "district": "운동동",
    "detailAddress": " ",
    "mainLotNumber": "64",
    "subLotNumber": "5",
    "lat": 36.601389,
    "lng": 127.522222,
    "grade": "C"
  },
  {
    "managementNo": "4311100022",
    "steepSlopeName": "운동5",
    "implementationOffice": "지자체",
    "managementTypeCode": "지자체(시도)",
    "departmentName": "상당구 건설과",
    "province": "충청북도",
    "city": "청주시 상당구",
    "district": "운동동",
    "detailAddress": " ",
    "mainLotNumber": "45",
    "subLotNumber": "",
    "lat": 36.601389,
    "lng": 127.522222,
    "grade": "B"
  },
  {
    "managementNo": "4311100023",
    "steepSlopeName": "월오2",
    "implementationOffice": "지자체",
    "managementTypeCode": "지자체(시도)",
    "departmentName": "상당구 건설과",
    "province": "충청북도",
    "city": "청주시 상당구",
    "district": "월오동",
    "detailAddress": " ",
    "mainLotNumber": "45",
    "subLotNumber": "",
    "lat": 36.618122,
    "lng": 127.546172,
    "grade": "C"
  },
  {
    "managementNo": "4311100024",
    "steepSlopeName": "월오3",
    "implementationOffice": "지자체",
    "managementTypeCode": "지자체(시도)",
    "departmentName": "상당구 건설과",
    "province": "충청북도",
    "city": "청주시 상당구",
    "district": "월오동",
    "detailAddress": " ",
    "mainLotNumber": "46",
    "subLotNumber": "",
    "lat": 36.6168,
    "lng": 127.5429,
    "grade": "C"
  },
  {
    "managementNo": "4311100025",
    "steepSlopeName": "월오4",
    "implementationOffice": "지자체",
    "managementTypeCode": "지자체(시도)",
    "departmentName": "상당구 건설과",
    "province": "충청북도",
    "city": "청주시 상당구",
    "district": "월오동",
    "detailAddress": " ",
    "mainLotNumber": "126",
    "subLotNumber": "6",
    "lat": 36.621332,
    "lng": 127.548471,
    "grade": "C"
  },
  {
    "managementNo": "4311100026",
    "steepSlopeName": "산성1",
    "implementationOffice": "지자체",
    "managementTypeCode": "지자체(시도)",
    "departmentName": "상당구 건설과",
    "province": "충청북도",
    "city": "청주시 상당구",
    "district": "산성동",
    "detailAddress": " 산성고개 정상일원(우측)",
    "mainLotNumber": "36",
    "subLotNumber": "4",
    "lat": 36.653831,
    "lng": 127.539631,
    "grade": "C"
  },
  {
    "managementNo": "4311100027",
    "steepSlopeName": "산성2",
    "implementationOffice": "지자체",
    "managementTypeCode": "지자체(시도)",
    "departmentName": "상당구 건설과",
    "province": "충청북도",
    "city": "청주시 상당구",
    "district": "산성동",
    "detailAddress": " 산성고개 정상일원(좌측)",
    "mainLotNumber": "36",
    "subLotNumber": "3",
    "lat": 36.654161,
    "lng": 127.537328,
    "grade": "C"
  },
  {
    "managementNo": "4311100028",
    "steepSlopeName": "산성3",
    "implementationOffice": "지자체",
    "managementTypeCode": "지자체(시도)",
    "departmentName": "상당구 건설과",
    "province": "충청북도",
    "city": "청주시 상당구",
    "district": "명암동",
    "detailAddress": " 산성고개 일원(중간)",
    "mainLotNumber": "24",
    "subLotNumber": "3",
    "lat": 36.651475,
    "lng": 127.537136,
    "grade": "C"
  },
  {
    "managementNo": "4311100029",
    "steepSlopeName": "명암1",
    "implementationOffice": "지자체",
    "managementTypeCode": "지자체(시도)",
    "departmentName": "상당구 건설과",
    "province": "충청북도",
    "city": "청주시 상당구",
    "district": "명암동",
    "detailAddress": " 청주랜드 맞은편",
    "mainLotNumber": "63",
    "subLotNumber": "2",
    "lat": 36.648772,
    "lng": 127.514519,
    "grade": "B"
  },
  {
    "managementNo": "4311100030",
    "steepSlopeName": "용정1",
    "implementationOffice": "지자체",
    "managementTypeCode": "지자체(시도)",
    "departmentName": "상당구 건설과",
    "province": "충청북도",
    "city": "청주시 상당구",
    "district": "용정동",
    "detailAddress": " ",
    "mainLotNumber": "130",
    "subLotNumber": "5",
    "lat": 36.634678,
    "lng": 127.514428,
    "grade": "C"
  },
  {
    "managementNo": "4311100031",
    "steepSlopeName": "용정2",
    "implementationOffice": "지자체",
    "managementTypeCode": "지자체(시도)",
    "departmentName": "상당구 건설과",
    "province": "충청북도",
    "city": "청주시 상당구",
    "district": "용정동",
    "detailAddress": " ",
    "mainLotNumber": "136",
    "subLotNumber": "8",
    "lat": 36.637375,
    "lng": 127.512483,
    "grade": "C"
  },
  {
    "managementNo": "4311100032",
    "steepSlopeName": "용담2",
    "implementationOffice": "지자체",
    "managementTypeCode": "지자체(시도)",
    "departmentName": "상당구 건설과",
    "province": "충청북도",
    "city": "청주시 상당구",
    "district": "용정동",
    "detailAddress": " ",
    "mainLotNumber": "8",
    "subLotNumber": "5",
    "lat": 36.640275,
    "lng": 127.513389,
    "grade": "C"
  },
  {
    "managementNo": "4311100033",
    "steepSlopeName": "용정3",
    "implementationOffice": "지자체",
    "managementTypeCode": "지자체(시도)",
    "departmentName": "상당구 건설과",
    "province": "충청북도",
    "city": "청주시 상당구",
    "district": "명암동",
    "detailAddress": " 풍주사 일원",
    "mainLotNumber": "42",
    "subLotNumber": "6",
    "lat": 36.641406,
    "lng": 127.513189,
    "grade": "C"
  },
  {
    "managementNo": "4311100035",
    "steepSlopeName": "율량1",
    "implementationOffice": "지자체",
    "managementTypeCode": "지자체(시도)",
    "departmentName": "청원구 건설과",
    "province": "충청북도",
    "city": "청주시 청원구",
    "district": "율량동",
    "detailAddress": " ",
    "mainLotNumber": "128",
    "subLotNumber": "18",
    "lat": 36.651667,
    "lng": 127.515556,
    "grade": "C"
  },
  {
    "managementNo": "4311100036",
    "steepSlopeName": "율량2",
    "implementationOffice": "지자체",
    "managementTypeCode": "지자체(시도)",
    "departmentName": "청원구 건설과",
    "province": "충청북도",
    "city": "청주시 청원구",
    "district": "율량동",
    "detailAddress": " ",
    "mainLotNumber": "122",
    "subLotNumber": "4",
    "lat": 36.665278,
    "lng": 127.506111,
    "grade": "C"
  },
  {
    "managementNo": "4311100037",
    "steepSlopeName": "율량3",
    "implementationOffice": "지자체",
    "managementTypeCode": "지자체(시도)",
    "departmentName": "청원구 건설과",
    "province": "충청북도",
    "city": "청주시 청원구",
    "district": "율량동",
    "detailAddress": " ",
    "mainLotNumber": "61",
    "subLotNumber": "11",
    "lat": 36.662222,
    "lng": 127.510278,
    "grade": "C"
  },
  {
    "managementNo": "4311100038",
    "steepSlopeName": "율량4",
    "implementationOffice": "지자체",
    "managementTypeCode": "지자체(시도)",
    "departmentName": "청원구 건설과",
    "province": "충청북도",
    "city": "청주시 청원구",
    "district": "율량동",
    "detailAddress": " ",
    "mainLotNumber": "60",
    "subLotNumber": "1",
    "lat": 36.665556,
    "lng": 127.505278,
    "grade": "C"
  },
  {
    "managementNo": "4311100039",
    "steepSlopeName": "월오5",
    "implementationOffice": "지자체",
    "managementTypeCode": "지자체(시도)",
    "departmentName": "상당구 건설과",
    "province": "충청북도",
    "city": "청주시 상당구",
    "district": "월오동",
    "detailAddress": " 목련공원 가기 전",
    "mainLotNumber": "76",
    "subLotNumber": "1",
    "lat": 36.639036,
    "lng": 127.547497,
    "grade": "C"
  },
  {
    "managementNo": "4311100040",
    "steepSlopeName": "월오6",
    "implementationOffice": "지자체",
    "managementTypeCode": "지자체(시도)",
    "departmentName": "상당구 건설과",
    "province": "충청북도",
    "city": "청주시 상당구",
    "district": "월오동",
    "detailAddress": " 화장장 부근",
    "mainLotNumber": "14",
    "subLotNumber": "3",
    "lat": 36.643736,
    "lng": 127.552489,
    "grade": "C"
  },
  {
    "managementNo": "4311100041",
    "steepSlopeName": "월오7",
    "implementationOffice": "지자체",
    "managementTypeCode": "지자체(시도)",
    "departmentName": "상당구 건설과",
    "province": "충청북도",
    "city": "청주시 상당구",
    "district": "월오동",
    "detailAddress": " 화장장 부근",
    "mainLotNumber": "14",
    "subLotNumber": "3",
    "lat": 36.643803,
    "lng": 127.551744,
    "grade": "B"
  },
  {
    "managementNo": "4311100042",
    "steepSlopeName": "월오8",
    "implementationOffice": "지자체",
    "managementTypeCode": "지자체(시도)",
    "departmentName": "상당구 건설과",
    "province": "충청북도",
    "city": "청주시 상당구",
    "district": "월오동",
    "detailAddress": " 목련공원 부근",
    "mainLotNumber": "2",
    "subLotNumber": "18",
    "lat": 36.644692,
    "lng": 127.552233,
    "grade": "B"
  },
  {
    "managementNo": "4311100043",
    "steepSlopeName": "명암2",
    "implementationOffice": "지자체",
    "managementTypeCode": "지자체(시도)",
    "departmentName": "청주랜드관리사업소",
    "province": "충청북도",
    "city": "청주시 상당구",
    "district": "명암동",
    "detailAddress": " 청주동물원 내",
    "mainLotNumber": "40",
    "subLotNumber": "",
    "lat": 36.652222,
    "lng": 127.521111,
    "grade": "C"
  },
  {
    "managementNo": "4311100044",
    "steepSlopeName": "명암3",
    "implementationOffice": "지자체",
    "managementTypeCode": "지자체(시도)",
    "departmentName": "상당구 건축과",
    "province": "충청북도",
    "city": "청주시 상당구",
    "district": "명암동",
    "detailAddress": " 청주드림랜드",
    "mainLotNumber": "47",
    "subLotNumber": "8",
    "lat": 36.651111,
    "lng": 127.521111,
    "grade": "C"
  },
  {
    "managementNo": "4311100045",
    "steepSlopeName": "명암4",
    "implementationOffice": "지자체",
    "managementTypeCode": "지자체(시도)",
    "departmentName": "상당구 건설과",
    "province": "충청북도",
    "city": "청주시 상당구",
    "district": "명암동",
    "detailAddress": " 명암타워 부근 외곽도로",
    "mainLotNumber": "55",
    "subLotNumber": "15",
    "lat": 36.646675,
    "lng": 127.513775,
    "grade": "C"
  },
  {
    "managementNo": "4311100048",
    "steepSlopeName": "용정4",
    "implementationOffice": "지자체",
    "managementTypeCode": "지자체(시도)",
    "departmentName": "청주시시설관리공단",
    "province": "충청북도",
    "city": "청주시 상당구",
    "district": "용정동",
    "detailAddress": " 김수녕 양궁장 부근",
    "mainLotNumber": "27",
    "subLotNumber": "1",
    "lat": 36.627222,
    "lng": 127.529444,
    "grade": "C"
  },
  {
    "managementNo": "4311100049",
    "steepSlopeName": "용정5",
    "implementationOffice": "지자체",
    "managementTypeCode": "지자체(시도)",
    "departmentName": "청주시시설관리공단",
    "province": "충청북도",
    "city": "청주시 상당구",
    "district": "용정동",
    "detailAddress": " 김수녕 양궁장 부근",
    "mainLotNumber": "27",
    "subLotNumber": "1",
    "lat": 36.626389,
    "lng": 127.527778,
    "grade": "C"
  },
  {
    "managementNo": "4311100050",
    "steepSlopeName": "내덕2",
    "implementationOffice": "지자체",
    "managementTypeCode": "지자체(시도)",
    "departmentName": "공동주택과",
    "province": "충청북도",
    "city": "청주시 청원구",
    "district": "내덕동",
    "detailAddress": " ",
    "mainLotNumber": "21",
    "subLotNumber": "1",
    "lat": 36.657222,
    "lng": 127.496944,
    "grade": "B"
  },
  {
    "managementNo": "4311100051",
    "steepSlopeName": "소전1지구",
    "implementationOffice": "지자체",
    "managementTypeCode": "지자체(시도)",
    "departmentName": "상당구 건설과",
    "province": "충청북도",
    "city": "청주시 상당구",
    "district": "문의면",
    "detailAddress": "소전리 ",
    "mainLotNumber": "58",
    "subLotNumber": "1",
    "lat": 36.457444,
    "lng": 127.516303,
    "grade": "B"
  },
  {
    "managementNo": "4311100052",
    "steepSlopeName": "소전2지구",
    "implementationOffice": "지자체",
    "managementTypeCode": "지자체(시도)",
    "departmentName": "상당구 건설과",
    "province": "충청북도",
    "city": "청주시 상당구",
    "district": "문의면",
    "detailAddress": "소전리 ",
    "mainLotNumber": "56",
    "subLotNumber": "6",
    "lat": 36.45725,
    "lng": 127.518411,
    "grade": "B"
  },
  {
    "managementNo": "4311100053",
    "steepSlopeName": "금관지구",
    "implementationOffice": "지자체",
    "managementTypeCode": "지자체(시도)",
    "departmentName": "충청북도도로관리사업소",
    "province": "충청북도",
    "city": "청주시 상당구",
    "district": "미원면",
    "detailAddress": "금관리 ",
    "mainLotNumber": "84",
    "subLotNumber": "2",
    "lat": 36.604766,
    "lng": 127.723436,
    "grade": "C"
  },
  {
    "managementNo": "4311100057",
    "steepSlopeName": "추정1",
    "implementationOffice": "지자체",
    "managementTypeCode": "지자체(시도)",
    "departmentName": "상당구 건설과",
    "province": "충청북도",
    "city": "청주시 상당구",
    "district": "낭성면",
    "detailAddress": "추정리 .",
    "mainLotNumber": "29",
    "subLotNumber": "1",
    "lat": 36.604764,
    "lng": 127.621064,
    "grade": "C"
  },
  {
    "managementNo": "4311100058",
    "steepSlopeName": "귀래2",
    "implementationOffice": "지자체",
    "managementTypeCode": "지자체(시도)",
    "departmentName": "산림관리과",
    "province": "충청북도",
    "city": "청주시 상당구",
    "district": "낭성면",
    "detailAddress": "귀래리 ",
    "mainLotNumber": "28",
    "subLotNumber": "",
    "lat": 36.631883,
    "lng": 127.635719,
    "grade": "B"
  },
  {
    "managementNo": "4311100059",
    "steepSlopeName": "지산3",
    "implementationOffice": "지자체",
    "managementTypeCode": "지자체(시도)",
    "departmentName": "상당구 건설과",
    "province": "충청북도",
    "city": "청주시 상당구",
    "district": "낭성면",
    "detailAddress": "지산리 0",
    "mainLotNumber": "75",
    "subLotNumber": "",
    "lat": 36.628392,
    "lng": 127.582983,
    "grade": "B"
  },
  {
    "managementNo": "4311100060",
    "steepSlopeName": "이목2",
    "implementationOffice": "지자체",
    "managementTypeCode": "지자체(시도)",
    "departmentName": "청주시 상수도사업본부 정수과",
    "province": "충청북도",
    "city": "청주시 상당구",
    "district": "낭성면",
    "detailAddress": "이목리 ",
    "mainLotNumber": "36",
    "subLotNumber": "1",
    "lat": 36.62188,
    "lng": 127.595159,
    "grade": "B"
  },
  {
    "managementNo": "4311100061",
    "steepSlopeName": "무성3",
    "implementationOffice": "지자체",
    "managementTypeCode": "지자체(시도)",
    "departmentName": "상당구 건설과",
    "province": "충청북도",
    "city": "청주시 상당구",
    "district": "낭성면",
    "detailAddress": "무성리 -2",
    "mainLotNumber": "153",
    "subLotNumber": "",
    "lat": 36.643244,
    "lng": 127.578339,
    "grade": "C"
  },
  {
    "managementNo": "4311100062",
    "steepSlopeName": "무성4",
    "implementationOffice": "지자체",
    "managementTypeCode": "지자체(시도)",
    "departmentName": "산림관리과",
    "province": "충청북도",
    "city": "청주시 상당구",
    "district": "낭성면",
    "detailAddress": "지산리 산138-10",
    "mainLotNumber": "13",
    "subLotNumber": "",
    "lat": 36.644228,
    "lng": 127.581803,
    "grade": "D"
  },
  {
    "managementNo": "4311100063",
    "steepSlopeName": "갈산1",
    "implementationOffice": "지자체",
    "managementTypeCode": "지자체(시도)",
    "departmentName": "산림관리과",
    "province": "충청북도",
    "city": "청주시 상당구",
    "district": "낭성면",
    "detailAddress": "갈산리 ",
    "mainLotNumber": "345",
    "subLotNumber": "4",
    "lat": 36.654846,
    "lng": 127.576653,
    "grade": "B"
  },
  {
    "managementNo": "4311100064",
    "steepSlopeName": "귀래3",
    "implementationOffice": "지자체",
    "managementTypeCode": "지자체(시도)",
    "departmentName": "상당구 건설과",
    "province": "충청북도",
    "city": "청주시 상당구",
    "district": "낭성면",
    "detailAddress": "귀래리 ",
    "mainLotNumber": "51",
    "subLotNumber": "1",
    "lat": 36.628092,
    "lng": 127.637108,
    "grade": "B"
  },
  {
    "managementNo": "4311100065",
    "steepSlopeName": "귀래4",
    "implementationOffice": "지자체",
    "managementTypeCode": "지자체(시도)",
    "departmentName": "상당구 건설과",
    "province": "충청북도",
    "city": "청주시 상당구",
    "district": "낭성면",
    "detailAddress": "귀래리 ",
    "mainLotNumber": "16",
    "subLotNumber": "1",
    "lat": 36.63095,
    "lng": 127.636006,
    "grade": "C"
  },
  {
    "managementNo": "4311100066",
    "steepSlopeName": "귀래5",
    "implementationOffice": "지자체",
    "managementTypeCode": "지자체(시도)",
    "departmentName": "상당구 건설과",
    "province": "충청북도",
    "city": "청주시 상당구",
    "district": "낭성면",
    "detailAddress": "귀래리 ",
    "mainLotNumber": "327",
    "subLotNumber": "",
    "lat": 36.629789,
    "lng": 127.637325,
    "grade": "C"
  },
  {
    "managementNo": "4311100067",
    "steepSlopeName": "현암1",
    "implementationOffice": "지자체",
    "managementTypeCode": "지자체(시도)",
    "departmentName": "충청북도도로관리사업소",
    "province": "충청북도",
    "city": "청주시 상당구",
    "district": "낭성면",
    "detailAddress": "현암리 ",
    "mainLotNumber": "18",
    "subLotNumber": "23",
    "lat": 36.643068,
    "lng": 127.564801,
    "grade": "D"
  },
  {
    "managementNo": "4311100068",
    "steepSlopeName": "무성5",
    "implementationOffice": "지자체",
    "managementTypeCode": "지자체(시도)",
    "departmentName": "충청북도도로관리사업소",
    "province": "충청북도",
    "city": "청주시 상당구",
    "district": "낭성면",
    "detailAddress": "무성리 ",
    "mainLotNumber": "29",
    "subLotNumber": "3",
    "lat": 36.634179,
    "lng": 127.58097,
    "grade": "D"
  },
  {
    "managementNo": "4311100069",
    "steepSlopeName": "지산4",
    "implementationOffice": "개인",
    "managementTypeCode": "기타(개인,기업)",
    "departmentName": "산림관리과",
    "province": "충청북도",
    "city": "청주시 상당구",
    "district": "낭성면",
    "detailAddress": "지산리 ",
    "mainLotNumber": "407",
    "subLotNumber": "",
    "lat": 36.6284,
    "lng": 127.5798,
    "grade": "C"
  },
  {
    "managementNo": "4311100070",
    "steepSlopeName": "지산5",
    "implementationOffice": "지자체",
    "managementTypeCode": "지자체(시도)",
    "departmentName": "상당구 건설과",
    "province": "충청북도",
    "city": "청주시 상당구",
    "district": "낭성면",
    "detailAddress": "지산리 .",
    "mainLotNumber": "239",
    "subLotNumber": "3",
    "lat": 36.633836,
    "lng": 127.590367,
    "grade": "B"
  },
  {
    "managementNo": "4311100071",
    "steepSlopeName": "지산6",
    "implementationOffice": "지자체",
    "managementTypeCode": "지자체(시도)",
    "departmentName": "충청북도도로관리사업소",
    "province": "충청북도",
    "city": "청주시 상당구",
    "district": "낭성면",
    "detailAddress": "지산리 ",
    "mainLotNumber": "553",
    "subLotNumber": "",
    "lat": 36.632231,
    "lng": 127.592229,
    "grade": "D"
  },
  {
    "managementNo": "4311100072",
    "steepSlopeName": "지산7",
    "implementationOffice": "지자체",
    "managementTypeCode": "지자체(시도)",
    "departmentName": "산림관리과",
    "province": "충청북도",
    "city": "청주시 상당구",
    "district": "낭성면",
    "detailAddress": "지산리 ",
    "mainLotNumber": "228",
    "subLotNumber": "4",
    "lat": 36.638559,
    "lng": 127.593134,
    "grade": "C"
  },
  {
    "managementNo": "4311100073",
    "steepSlopeName": "지산8",
    "implementationOffice": "지자체",
    "managementTypeCode": "지자체(시도)",
    "departmentName": "충청북도도로관리사업소",
    "province": "충청북도",
    "city": "청주시 상당구",
    "district": "낭성면",
    "detailAddress": "지산리 ",
    "mainLotNumber": "22",
    "subLotNumber": "5",
    "lat": 36.627006,
    "lng": 127.598986,
    "grade": "D"
  },
  {
    "managementNo": "4311100074",
    "steepSlopeName": "이목3",
    "implementationOffice": "지자체",
    "managementTypeCode": "지자체(시도)",
    "departmentName": "산림관리과",
    "province": "충청북도",
    "city": "청주시 상당구",
    "district": "낭성면",
    "detailAddress": "이목리 ",
    "mainLotNumber": "175",
    "subLotNumber": "",
    "lat": 36.624949,
    "lng": 127.597155,
    "grade": "C"
  },
  {
    "managementNo": "4311100075",
    "steepSlopeName": "이목4",
    "implementationOffice": "지자체",
    "managementTypeCode": "지자체(시도)",
    "departmentName": "산림관리과",
    "province": "충청북도",
    "city": "청주시 상당구",
    "district": "낭성면",
    "detailAddress": "이목리 ",
    "mainLotNumber": "39",
    "subLotNumber": "",
    "lat": 36.619985,
    "lng": 127.60807,
    "grade": "B"
  },
  {
    "managementNo": "4311100076",
    "steepSlopeName": "호정1",
    "implementationOffice": "지자체",
    "managementTypeCode": "지자체(시도)",
    "departmentName": "상당구 건설과",
    "province": "충청북도",
    "city": "청주시 상당구",
    "district": "낭성면",
    "detailAddress": "호정리 .",
    "mainLotNumber": "612",
    "subLotNumber": "2",
    "lat": 36.607014,
    "lng": 127.597581,
    "grade": "C"
  },
  {
    "managementNo": "4311100077",
    "steepSlopeName": "호정2",
    "implementationOffice": "지자체",
    "managementTypeCode": "지자체(시도)",
    "departmentName": "상당구 건설과",
    "province": "충청북도",
    "city": "청주시 상당구",
    "district": "낭성면",
    "detailAddress": "호정리 ",
    "mainLotNumber": "533",
    "subLotNumber": "1",
    "lat": 36.613186,
    "lng": 127.602517,
    "grade": "B"
  },
  {
    "managementNo": "4311100078",
    "steepSlopeName": "문박1",
    "implementationOffice": "개인",
    "managementTypeCode": "기타(개인,기업)",
    "departmentName": "상당구 건축과",
    "province": "충청북도",
    "city": "청주시 상당구",
    "district": "낭성면",
    "detailAddress": "문박리 ",
    "mainLotNumber": "33",
    "subLotNumber": "",
    "lat": 36.636667,
    "lng": 127.608611,
    "grade": "C"
  },
  {
    "managementNo": "4311100079",
    "steepSlopeName": "문박2",
    "implementationOffice": "개인",
    "managementTypeCode": "기타(개인,기업)",
    "departmentName": "상당구 건축과",
    "province": "충청북도",
    "city": "청주시 상당구",
    "district": "낭성면",
    "detailAddress": "문박리 ",
    "mainLotNumber": "28",
    "subLotNumber": "",
    "lat": 36.638056,
    "lng": 127.608056,
    "grade": "C"
  },
  {
    "managementNo": "4311100080",
    "steepSlopeName": "인경2",
    "implementationOffice": "지자체",
    "managementTypeCode": "지자체(시도)",
    "departmentName": "상당구 건설과",
    "province": "충청북도",
    "city": "청주시 상당구",
    "district": "낭성면",
    "detailAddress": "인경리 ",
    "mainLotNumber": "23",
    "subLotNumber": "4",
    "lat": 36.654664,
    "lng": 127.600014,
    "grade": "B"
  },
  {
    "managementNo": "4311100081",
    "steepSlopeName": "무성6",
    "implementationOffice": "지자체",
    "managementTypeCode": "지자체(시도)",
    "departmentName": "상당구 건축과",
    "province": "충청북도",
    "city": "청주시 상당구",
    "district": "낭성면",
    "detailAddress": "무성리 ",
    "mainLotNumber": "291",
    "subLotNumber": "10",
    "lat": 36.641121,
    "lng": 127.570145,
    "grade": "C"
  },
  {
    "managementNo": "4311100082",
    "steepSlopeName": "무성7",
    "implementationOffice": "지자체",
    "managementTypeCode": "지자체(시도)",
    "departmentName": "상당구 건설과",
    "province": "충청북도",
    "city": "청주시 상당구",
    "district": "낭성면",
    "detailAddress": "무성리 ",
    "mainLotNumber": "345",
    "subLotNumber": "",
    "lat": 36.646222,
    "lng": 127.573131,
    "grade": "C"
  },
  {
    "managementNo": "4311100083",
    "steepSlopeName": "무성8",
    "implementationOffice": "지자체",
    "managementTypeCode": "지자체(시도)",
    "departmentName": "상당구 건축과",
    "province": "충청북도",
    "city": "청주시 상당구",
    "district": "낭성면",
    "detailAddress": "무성리 ",
    "mainLotNumber": "6",
    "subLotNumber": "1",
    "lat": 36.650896,
    "lng": 127.58068,
    "grade": "C"
  },
  {
    "managementNo": "4311100084",
    "steepSlopeName": "현암2",
    "implementationOffice": "지자체",
    "managementTypeCode": "지자체(시도)",
    "departmentName": "충청북도도로관리사업소",
    "province": "충청북도",
    "city": "청주시 상당구",
    "district": "낭성면",
    "detailAddress": "현암리 ",
    "mainLotNumber": "22",
    "subLotNumber": "2",
    "lat": 36.649474,
    "lng": 127.555695,
    "grade": "B"
  },
  {
    "managementNo": "4311100085",
    "steepSlopeName": "관정2",
    "implementationOffice": "지자체",
    "managementTypeCode": "지자체(시도)",
    "departmentName": "산림관리과",
    "province": "충청북도",
    "city": "청주시 상당구",
    "district": "낭성면",
    "detailAddress": "관정리 ",
    "mainLotNumber": "52",
    "subLotNumber": "2",
    "lat": 36.615354,
    "lng": 127.638908,
    "grade": "B"
  },
  {
    "managementNo": "4311100086",
    "steepSlopeName": "기암1",
    "implementationOffice": "지자체",
    "managementTypeCode": "지자체(시도)",
    "departmentName": "상당구 건축과",
    "province": "충청북도",
    "city": "청주시 상당구",
    "district": "미원면",
    "detailAddress": "기암리(岐岩) ",
    "mainLotNumber": "6",
    "subLotNumber": "",
    "lat": 36.687588,
    "lng": 127.71828,
    "grade": "C"
  },
  {
    "managementNo": "4311100087",
    "steepSlopeName": "중리1",
    "implementationOffice": "지자체",
    "managementTypeCode": "지자체(시도)",
    "departmentName": "상당구 건설과",
    "province": "충청북도",
    "city": "청주시 상당구",
    "district": "미원면",
    "detailAddress": "중리 ",
    "mainLotNumber": "436",
    "subLotNumber": "1",
    "lat": 36.669986,
    "lng": 127.667358,
    "grade": "C"
  },
  {
    "managementNo": "4311100088",
    "steepSlopeName": "어암2",
    "implementationOffice": "지자체",
    "managementTypeCode": "지자체(시도)",
    "departmentName": "상당구 건설과",
    "province": "충청북도",
    "city": "청주시 상당구",
    "district": "미원면",
    "detailAddress": "어암리 ",
    "mainLotNumber": "555",
    "subLotNumber": "",
    "lat": 36.6178,
    "lng": 127.731464,
    "grade": "C"
  },
  {
    "managementNo": "4311100089",
    "steepSlopeName": "운암1",
    "implementationOffice": "지자체",
    "managementTypeCode": "지자체(시도)",
    "departmentName": "상당구 건설과",
    "province": "충청북도",
    "city": "청주시 상당구",
    "district": "미원면",
    "detailAddress": "운암리 .",
    "mainLotNumber": "16",
    "subLotNumber": "5",
    "lat": 36.609881,
    "lng": 127.695436,
    "grade": "B"
  },
  {
    "managementNo": "4311100090",
    "steepSlopeName": "기암2",
    "implementationOffice": "지자체",
    "managementTypeCode": "지자체(시도)",
    "departmentName": "충청북도도로관리사업소",
    "province": "충청북도",
    "city": "청주시 상당구",
    "district": "미원면",
    "detailAddress": "기암리(岐岩) ",
    "mainLotNumber": "65",
    "subLotNumber": "",
    "lat": 36.681001,
    "lng": 127.707171,
    "grade": "C"
  },
  {
    "managementNo": "4311100091",
    "steepSlopeName": "운용1",
    "implementationOffice": "지자체",
    "managementTypeCode": "지자체(시도)",
    "departmentName": "상당구 건설과",
    "province": "충청북도",
    "city": "청주시 상당구",
    "district": "미원면",
    "detailAddress": "운용리 ",
    "mainLotNumber": "386",
    "subLotNumber": "7",
    "lat": 36.683344,
    "lng": 127.667317,
    "grade": "C"
  },
  {
    "managementNo": "4311100092",
    "steepSlopeName": "운용2",
    "implementationOffice": "지자체",
    "managementTypeCode": "지자체(시도)",
    "departmentName": "상당구 건설과",
    "province": "충청북도",
    "city": "청주시 상당구",
    "district": "미원면",
    "detailAddress": "운용리 ",
    "mainLotNumber": "59",
    "subLotNumber": "1",
    "lat": 36.672897,
    "lng": 127.667678,
    "grade": "C"
  },
  {
    "managementNo": "4311100094",
    "steepSlopeName": "중리2",
    "implementationOffice": "지자체",
    "managementTypeCode": "지자체(시도)",
    "departmentName": "산림관리과",
    "province": "충청북도",
    "city": "청주시 상당구",
    "district": "미원면",
    "detailAddress": "중리 ",
    "mainLotNumber": "",
    "subLotNumber": "",
    "lat": 36.660964,
    "lng": 127.673273,
    "grade": "D"
  },
  {
    "managementNo": "4311100095",
    "steepSlopeName": "화원2",
    "implementationOffice": "지자체",
    "managementTypeCode": "지자체(시도)",
    "departmentName": "상당구 건설과",
    "province": "충청북도",
    "city": "청주시 상당구",
    "district": "미원면",
    "detailAddress": "화원리 ",
    "mainLotNumber": "16",
    "subLotNumber": "1",
    "lat": 36.696853,
    "lng": 127.664083,
    "grade": "C"
  },
  {
    "managementNo": "4311100096",
    "steepSlopeName": "종암2",
    "implementationOffice": "지자체",
    "managementTypeCode": "지자체(시도)",
    "departmentName": "상당구 건설과",
    "province": "충청북도",
    "city": "청주시 상당구",
    "district": "미원면",
    "detailAddress": "종암리 ",
    "mainLotNumber": "323",
    "subLotNumber": "",
    "lat": 36.693722,
    "lng": 127.630556,
    "grade": "C"
  },
  {
    "managementNo": "4311100097",
    "steepSlopeName": "대신3",
    "implementationOffice": "지자체",
    "managementTypeCode": "지자체(시도)",
    "departmentName": "산림관리과",
    "province": "충청북도",
    "city": "청주시 상당구",
    "district": "미원면",
    "detailAddress": "대신리 대신1길 3-50 축사 비탈면",
    "mainLotNumber": "713",
    "subLotNumber": "",
    "lat": 36.690688,
    "lng": 127.594751,
    "grade": "D"
  },
  {
    "managementNo": "4311100098",
    "steepSlopeName": "화창1",
    "implementationOffice": "지자체",
    "managementTypeCode": "지자체(시도)",
    "departmentName": "상당구 건설과",
    "province": "충청북도",
    "city": "청주시 상당구",
    "district": "미원면",
    "detailAddress": "화창리 마을진입도로",
    "mainLotNumber": "461",
    "subLotNumber": "",
    "lat": 36.657492,
    "lng": 127.615144,
    "grade": "C"
  },
  {
    "managementNo": "4311100099",
    "steepSlopeName": "기암3",
    "implementationOffice": "지자체",
    "managementTypeCode": "지자체(시도)",
    "departmentName": "상당구 건설과",
    "province": "충청북도",
    "city": "청주시 상당구",
    "district": "미원면",
    "detailAddress": "기암리(基岩) 화창 기암",
    "mainLotNumber": "88",
    "subLotNumber": "2",
    "lat": 36.671114,
    "lng": 127.628936,
    "grade": "C"
  },
  {
    "managementNo": "4311100100",
    "steepSlopeName": "대신4",
    "implementationOffice": "청주시",
    "managementTypeCode": "지자체(시도)",
    "departmentName": "충청북도도로관리사업소",
    "province": "충청북도",
    "city": "청주시 상당구",
    "district": "미원면",
    "detailAddress": "대신리 ",
    "mainLotNumber": "5",
    "subLotNumber": "1",
    "lat": 36.690556,
    "lng": 127.622222,
    "grade": "C"
  },
  {
    "managementNo": "4311100101",
    "steepSlopeName": "계원1",
    "implementationOffice": "개인",
    "managementTypeCode": "기타(개인,기업)",
    "departmentName": "상당구 건설과",
    "province": "충청북도",
    "city": "청주시 상당구",
    "district": "미원면",
    "detailAddress": "계원리 ",
    "mainLotNumber": "25",
    "subLotNumber": "4",
    "lat": 36.591111,
    "lng": 127.747778,
    "grade": "D"
  },
  {
    "managementNo": "4311100102",
    "steepSlopeName": "삼항3",
    "implementationOffice": "지자체",
    "managementTypeCode": "지자체(시도)",
    "departmentName": "상당구 건축과",
    "province": "충청북도",
    "city": "청주시 상당구",
    "district": "가덕면",
    "detailAddress": "삼항리 계단식 옹벽 8단(민가 지반 보강 목적)",
    "mainLotNumber": "418",
    "subLotNumber": "1",
    "lat": 36.542143,
    "lng": 127.518847,
    "grade": "B"
  },
  {
    "managementNo": "4311100103",
    "steepSlopeName": "삼항4",
    "implementationOffice": "개인",
    "managementTypeCode": "기타(개인,기업)",
    "departmentName": "상당구 건축과",
    "province": "충청북도",
    "city": "청주시 상당구",
    "district": "가덕면",
    "detailAddress": "삼항리 ",
    "mainLotNumber": "490",
    "subLotNumber": "7",
    "lat": 36.543333,
    "lng": 127.518333,
    "grade": "C"
  },
  {
    "managementNo": "4311100104",
    "steepSlopeName": "삼항5",
    "implementationOffice": "지자체",
    "managementTypeCode": "지자체(시도)",
    "departmentName": "상당구 건축과",
    "province": "충청북도",
    "city": "청주시 상당구",
    "district": "가덕면",
    "detailAddress": "삼항리 ",
    "mainLotNumber": "2",
    "subLotNumber": "",
    "lat": 36.54093,
    "lng": 127.519491,
    "grade": "C"
  },
  {
    "managementNo": "4311100105",
    "steepSlopeName": "송암1",
    "implementationOffice": "지자체",
    "managementTypeCode": "지자체(시도)",
    "departmentName": "상당구 건축과",
    "province": "충청북도",
    "city": "청주시 상당구",
    "district": "남일면",
    "detailAddress": "송암리 ",
    "mainLotNumber": "419",
    "subLotNumber": "2",
    "lat": 36.591847,
    "lng": 127.518135,
    "grade": "C"
  },
  {
    "managementNo": "4311100106",
    "steepSlopeName": "화당2",
    "implementationOffice": "지자체",
    "managementTypeCode": "지자체(시도)",
    "departmentName": "상당구 건설과",
    "province": "충청북도",
    "city": "청주시 상당구",
    "district": "남일면",
    "detailAddress": "화당리 ",
    "mainLotNumber": "100",
    "subLotNumber": "4",
    "lat": 36.546208,
    "lng": 127.486619,
    "grade": "C"
  },
  {
    "managementNo": "4311100107",
    "steepSlopeName": "운동6",
    "implementationOffice": "지자체",
    "managementTypeCode": "지자체(시도)",
    "departmentName": "산림관리과",
    "province": "충청북도",
    "city": "청주시 상당구",
    "district": "운동동",
    "detailAddress": " 목련로214번길 주거지역 배후 자연급경사지",
    "mainLotNumber": "508",
    "subLotNumber": "193",
    "lat": 36.606191,
    "lng": 127.527014,
    "grade": "C"
  },
  {
    "managementNo": "4311100108",
    "steepSlopeName": "운동7",
    "implementationOffice": "지자체",
    "managementTypeCode": "지자체(시도)",
    "departmentName": "상당구 건설과",
    "province": "충청북도",
    "city": "청주시 상당구",
    "district": "운동동",
    "detailAddress": " 공사 구간 임시 컨테이너 사무실 배후 인공사면",
    "mainLotNumber": "478",
    "subLotNumber": "10",
    "lat": 36.599422,
    "lng": 127.513336,
    "grade": "C"
  },
  {
    "managementNo": "4311100109",
    "steepSlopeName": "운동8",
    "implementationOffice": "지자체",
    "managementTypeCode": "지자체(시도)",
    "departmentName": "상당구 건설과",
    "province": "충청북도",
    "city": "청주시 상당구",
    "district": "운동동",
    "detailAddress": " 목련로 내 동남주유소 인근(동남주유소에서 남쪽 100m) 식당과 사무실 인공급경사지",
    "mainLotNumber": "25",
    "subLotNumber": "8",
    "lat": 36.607083,
    "lng": 127.529722,
    "grade": "C"
  },
  {
    "managementNo": "4311100110",
    "steepSlopeName": "운동9",
    "implementationOffice": "지자체",
    "managementTypeCode": "지자체(시도)",
    "departmentName": "상당구 건설과",
    "province": "충청북도",
    "city": "청주시 상당구",
    "district": "운동동",
    "detailAddress": " ",
    "mainLotNumber": "269",
    "subLotNumber": "1",
    "lat": 36.604414,
    "lng": 127.520314,
    "grade": "B"
  },
  {
    "managementNo": "4311100111",
    "steepSlopeName": "월오9",
    "implementationOffice": "지자체",
    "managementTypeCode": "지자체(시도)",
    "departmentName": "산림관리과",
    "province": "충청북도",
    "city": "청주시 상당구",
    "district": "월오동",
    "detailAddress": " 다리실로69번길 주거지역 배후의 자연급경사지",
    "mainLotNumber": "559",
    "subLotNumber": "60",
    "lat": 36.612511,
    "lng": 127.531003,
    "grade": "B"
  },
  {
    "managementNo": "4311100112",
    "steepSlopeName": "월오10",
    "implementationOffice": "지자체",
    "managementTypeCode": "지자체(시도)",
    "departmentName": "상당구 건축과",
    "province": "충청북도",
    "city": "청주시 상당구",
    "district": "월오동",
    "detailAddress": " ",
    "mainLotNumber": "403",
    "subLotNumber": "2",
    "lat": 36.613765,
    "lng": 127.532949,
    "grade": "C"
  },
  {
    "managementNo": "4311100113",
    "steepSlopeName": "월오11",
    "implementationOffice": "지자체",
    "managementTypeCode": "지자체(시도)",
    "departmentName": "상당구 건설과",
    "province": "충청북도",
    "city": "청주시 상당구",
    "district": "월오동",
    "detailAddress": " .",
    "mainLotNumber": "452",
    "subLotNumber": "",
    "lat": 36.616078,
    "lng": 127.536614,
    "grade": "C"
  },
  {
    "managementNo": "4311100114",
    "steepSlopeName": "월오12",
    "implementationOffice": "지자체",
    "managementTypeCode": "지자체(시도)",
    "departmentName": "상당구 건설과",
    "province": "충청북도",
    "city": "청주시 상당구",
    "district": "월오동",
    "detailAddress": " 도로변 급경사지",
    "mainLotNumber": "6",
    "subLotNumber": "5",
    "lat": 36.6369,
    "lng": 127.547628,
    "grade": "C"
  },
  {
    "managementNo": "4311100115",
    "steepSlopeName": "월오13",
    "implementationOffice": "지자체",
    "managementTypeCode": "지자체(시도)",
    "departmentName": "청주시시설관리공단",
    "province": "충청북도",
    "city": "청주시 상당구",
    "district": "월오동",
    "detailAddress": " 목련공원 주차장 토사경사지",
    "mainLotNumber": "4",
    "subLotNumber": "",
    "lat": 36.6437,
    "lng": 127.552284,
    "grade": "B"
  },
  {
    "managementNo": "4311100116",
    "steepSlopeName": "월오14",
    "implementationOffice": "지자체",
    "managementTypeCode": "지자체(시도)",
    "departmentName": "상당구 건설과",
    "province": "충청북도",
    "city": "청주시 상당구",
    "district": "월오동",
    "detailAddress": " ",
    "mainLotNumber": "118",
    "subLotNumber": "1",
    "lat": 36.6267,
    "lng": 127.5493,
    "grade": "B"
  },
  {
    "managementNo": "4311100117",
    "steepSlopeName": "월오15",
    "implementationOffice": "지자체",
    "managementTypeCode": "지자체(시도)",
    "departmentName": "상당구 건설과",
    "province": "충청북도",
    "city": "청주시 상당구",
    "district": "월오동",
    "detailAddress": " 도로변 급경사지",
    "mainLotNumber": "579",
    "subLotNumber": "3",
    "lat": 36.616639,
    "lng": 127.5425,
    "grade": "B"
  },
  {
    "managementNo": "4311100118",
    "steepSlopeName": "수동2",
    "implementationOffice": "지자체",
    "managementTypeCode": "지자체(시도)",
    "departmentName": "상당구 건설과",
    "province": "충청북도",
    "city": "청주시 상당구",
    "district": "수동",
    "detailAddress": " 삼일공원 우암산 순환로 인접사면",
    "mainLotNumber": "81",
    "subLotNumber": "2",
    "lat": 36.646661,
    "lng": 127.495992,
    "grade": "B"
  },
  {
    "managementNo": "4311100119",
    "steepSlopeName": "수동8",
    "implementationOffice": "지자체",
    "managementTypeCode": "지자체(시도)",
    "departmentName": "청년정책담당관",
    "province": "충청북도",
    "city": "청주시 상당구",
    "district": "수동",
    "detailAddress": " 청소년문화의집 광장 하부 옹벽",
    "mainLotNumber": "112",
    "subLotNumber": "69",
    "lat": 36.644148,
    "lng": 127.495168,
    "grade": "C"
  },
  {
    "managementNo": "4311100120",
    "steepSlopeName": "수동9",
    "implementationOffice": "지자체",
    "managementTypeCode": "지자체(시도)",
    "departmentName": "상당구 건축과",
    "province": "충청북도",
    "city": "청주시 상당구",
    "district": "수동",
    "detailAddress": " 수동 202-1, 교동로47번길 51 윗쪽 성공회 수동성당 진입도로 옆 주택하부사면",
    "mainLotNumber": "202",
    "subLotNumber": "1",
    "lat": 36.639221,
    "lng": 127.493538,
    "grade": "B"
  },
  {
    "managementNo": "4311100121",
    "steepSlopeName": "수동3",
    "implementationOffice": "지자체",
    "managementTypeCode": "지자체(시도)",
    "departmentName": "상당구 건설과",
    "province": "충청북도",
    "city": "청주시 상당구",
    "district": "수동",
    "detailAddress": " 우암산 순환로 ( 국궁장 입구 하부 ) 사면",
    "mainLotNumber": "112",
    "subLotNumber": "3",
    "lat": 36.644106,
    "lng": 127.495711,
    "grade": "A"
  },
  {
    "managementNo": "4311100122",
    "steepSlopeName": "수동4",
    "implementationOffice": "지자체",
    "managementTypeCode": "지자체(시도)",
    "departmentName": "상당구 건설과",
    "province": "충청북도",
    "city": "청주시 상당구",
    "district": "수동",
    "detailAddress": " -117",
    "mainLotNumber": "112",
    "subLotNumber": "",
    "lat": 36.642247,
    "lng": 127.494544,
    "grade": "C"
  },
  {
    "managementNo": "4311100123",
    "steepSlopeName": "수동5",
    "implementationOffice": "지자체",
    "managementTypeCode": "지자체(시도)",
    "departmentName": "상당구 건설과",
    "province": "충청북도",
    "city": "청주시 상당구",
    "district": "수동",
    "detailAddress": " .",
    "mainLotNumber": "81",
    "subLotNumber": "331",
    "lat": 36.645494,
    "lng": 127.494839,
    "grade": "E"
  },
  {
    "managementNo": "4311100124",
    "steepSlopeName": "수동6",
    "implementationOffice": "지자체",
    "managementTypeCode": "지자체(시도)",
    "departmentName": "공원관리과",
    "province": "충청북도",
    "city": "청주시 상당구",
    "district": "수동",
    "detailAddress": " 비탈면 하부 2채의 주택 위치",
    "mainLotNumber": "453",
    "subLotNumber": "",
    "lat": 36.639367,
    "lng": 127.497437,
    "grade": "B"
  },
  {
    "managementNo": "4311100126",
    "steepSlopeName": "수동10",
    "implementationOffice": "지자체",
    "managementTypeCode": "지자체(시도)",
    "departmentName": "상당구 건설과",
    "province": "충청북도",
    "city": "청주시 상당구",
    "district": "수동",
    "detailAddress": " 교동로 도로 옆 인공비탈면(수동 산15-1, 교동로 64)",
    "mainLotNumber": "453",
    "subLotNumber": "11",
    "lat": 36.638047,
    "lng": 127.496525,
    "grade": "C"
  },
  {
    "managementNo": "4311100127",
    "steepSlopeName": "대성2",
    "implementationOffice": "지자체",
    "managementTypeCode": "지자체(시도)",
    "departmentName": "충청북도 안전정책과",
    "province": "충청북도",
    "city": "청주시 상당구",
    "district": "대성동",
    "detailAddress": " ",
    "mainLotNumber": "",
    "subLotNumber": "",
    "lat": 36.635811,
    "lng": 127.493676,
    "grade": "D"
  },
  {
    "managementNo": "4311100128",
    "steepSlopeName": "대성3",
    "implementationOffice": "지자체",
    "managementTypeCode": "지자체(시도)",
    "departmentName": "산림관리과",
    "province": "충청북도",
    "city": "청주시 상당구",
    "district": "대성동",
    "detailAddress": " 당고개로 38번길 인근 급경사지(하부에 다수의 주택 위치)",
    "mainLotNumber": "47",
    "subLotNumber": "8",
    "lat": 36.636028,
    "lng": 127.498726,
    "grade": "D"
  },
  {
    "managementNo": "4311100130",
    "steepSlopeName": "노현저수지 여방수로(4371010073)",
    "implementationOffice": "충북지역본부 청주지사",
    "managementTypeCode": "한국농어촌공사",
    "departmentName": "한국농어촌공사",
    "province": "충청북도",
    "city": "청주시 상당구",
    "district": "문의면",
    "detailAddress": "노현리 ",
    "mainLotNumber": "6",
    "subLotNumber": "2",
    "lat": 36.513196,
    "lng": 127.547511,
    "grade": "A"
  },
  {
    "managementNo": "4311100131",
    "steepSlopeName": "충북 청주 가덕 한계 N1지구",
    "implementationOffice": "청주시",
    "managementTypeCode": "지자체(시도)",
    "departmentName": "",
    "province": "충청북도",
    "city": "청주시 상당구",
    "district": "가덕면",
    "detailAddress": "한계리 ",
    "mainLotNumber": "49",
    "subLotNumber": "13",
    "lat": 36.606667,
    "lng": 127.563056,
    "grade": "C"
  },
  {
    "managementNo": "4311100132",
    "steepSlopeName": "충북 청주 가덕 한계 N2지구",
    "implementationOffice": "청주시",
    "managementTypeCode": "지자체(시도)",
    "departmentName": "",
    "province": "충청북도",
    "city": "청주시 상당구",
    "district": "가덕면",
    "detailAddress": "한계리 ",
    "mainLotNumber": "390",
    "subLotNumber": "4",
    "lat": 36.606111,
    "lng": 127.546389,
    "grade": "C"
  },
  {
    "managementNo": "4311100133",
    "steepSlopeName": "충북 청주 가덕 한계 N3지구",
    "implementationOffice": "청주시",
    "managementTypeCode": "지자체(시도)",
    "departmentName": "",
    "province": "충청북도",
    "city": "청주시 상당구",
    "district": "가덕면",
    "detailAddress": "한계리 ",
    "mainLotNumber": "43",
    "subLotNumber": "12",
    "lat": 36.601111,
    "lng": 127.561389,
    "grade": "C"
  },
  {
    "managementNo": "4311100134",
    "steepSlopeName": "충북 청주 가덕 한계 N4지구",
    "implementationOffice": "청주시",
    "managementTypeCode": "지자체(시도)",
    "departmentName": "",
    "province": "충청북도",
    "city": "청주시 상당구",
    "district": "가덕면",
    "detailAddress": "한계리 ",
    "mainLotNumber": "38",
    "subLotNumber": "38",
    "lat": 36.6,
    "lng": 127.569444,
    "grade": "B"
  },
  {
    "managementNo": "4311100135",
    "steepSlopeName": "충북 청주 가덕 한계 N5지구",
    "implementationOffice": "청주시",
    "managementTypeCode": "지자체(시도)",
    "departmentName": "",
    "province": "충청북도",
    "city": "청주시 상당구",
    "district": "가덕면",
    "detailAddress": "한계리 ",
    "mainLotNumber": "38",
    "subLotNumber": "4",
    "lat": 36.5984,
    "lng": 127.568,
    "grade": "C"
  },
  {
    "managementNo": "4311100136",
    "steepSlopeName": "충북 청주 남일 황청 N1지구",
    "implementationOffice": "청주시",
    "managementTypeCode": "지자체(시도)",
    "departmentName": "",
    "province": "충청북도",
    "city": "청주시 상당구",
    "district": "남일면",
    "detailAddress": "황청리 ",
    "mainLotNumber": "246",
    "subLotNumber": "4",
    "lat": 36.605,
    "lng": 127.546944,
    "grade": "C"
  },
  {
    "managementNo": "4311100137",
    "steepSlopeName": "충북 청주 남일 황청 N2지구",
    "implementationOffice": "청주시",
    "managementTypeCode": "지자체(시도)",
    "departmentName": "",
    "province": "충청북도",
    "city": "청주시 상당구",
    "district": "남일면",
    "detailAddress": "황청리 ",
    "mainLotNumber": "243",
    "subLotNumber": "3",
    "lat": 36.602222,
    "lng": 127.549167,
    "grade": "C"
  },
  {
    "managementNo": "4311100138",
    "steepSlopeName": "충북 청주 남일 황청 N3지구",
    "implementationOffice": "청주시",
    "managementTypeCode": "지자체(시도)",
    "departmentName": "",
    "province": "충청북도",
    "city": "청주시 상당구",
    "district": "남일면",
    "detailAddress": "황청리 ",
    "mainLotNumber": "243",
    "subLotNumber": "6",
    "lat": 36.601111,
    "lng": 127.549444,
    "grade": "C"
  },
  {
    "managementNo": "4311100139",
    "steepSlopeName": "충북 청주 남일 황청 N4지구",
    "implementationOffice": "청주시",
    "managementTypeCode": "지자체(시도)",
    "departmentName": "",
    "province": "충청북도",
    "city": "청주시 상당구",
    "district": "남일면",
    "detailAddress": "황청리 ",
    "mainLotNumber": "232",
    "subLotNumber": "2",
    "lat": 36.564667,
    "lng": 127.5538,
    "grade": "B"
  },
  {
    "managementNo": "4311100140",
    "steepSlopeName": "충북 청주 남일 황청 N5지구",
    "implementationOffice": "청주시",
    "managementTypeCode": "지자체(시도)",
    "departmentName": "",
    "province": "충청북도",
    "city": "청주시 상당구",
    "district": "남일면",
    "detailAddress": "황청리 ",
    "mainLotNumber": "7",
    "subLotNumber": "2",
    "lat": 36.593056,
    "lng": 127.560278,
    "grade": "C"
  },
  {
    "managementNo": "4311100141",
    "steepSlopeName": "충북 청주 남일 황청 N6지구",
    "implementationOffice": "청주시",
    "managementTypeCode": "지자체(시도)",
    "departmentName": "",
    "province": "충청북도",
    "city": "청주시 상당구",
    "district": "남일면",
    "detailAddress": "황청리 ",
    "mainLotNumber": "6",
    "subLotNumber": "3",
    "lat": 36.5939,
    "lng": 127.5591,
    "grade": "C"
  },
  {
    "managementNo": "4311100142",
    "steepSlopeName": "충북 청주 낭성 지산 N1지구",
    "implementationOffice": "청주시",
    "managementTypeCode": "지자체(시도)",
    "departmentName": "",
    "province": "충청북도",
    "city": "청주시 상당구",
    "district": "낭성면",
    "detailAddress": "지산리 ",
    "mainLotNumber": "60",
    "subLotNumber": "1",
    "lat": 36.629167,
    "lng": 127.585,
    "grade": "C"
  },
  {
    "managementNo": "4311100143",
    "steepSlopeName": "충북 청주 문의 덕유 N1지구",
    "implementationOffice": "청주시",
    "managementTypeCode": "지자체(시도)",
    "departmentName": "",
    "province": "충청북도",
    "city": "청주시 상당구",
    "district": "문의면",
    "detailAddress": "덕유리 ",
    "mainLotNumber": "45",
    "subLotNumber": "4",
    "lat": 36.48,
    "lng": 127.481111,
    "grade": "C"
  },
  {
    "managementNo": "4311100144",
    "steepSlopeName": "충북 청주 월오 N3지구",
    "implementationOffice": "청주시",
    "managementTypeCode": "지자체(시도)",
    "departmentName": "",
    "province": "충청북도",
    "city": "청주시 상당구",
    "district": "월오동",
    "detailAddress": " ",
    "mainLotNumber": "51",
    "subLotNumber": "17",
    "lat": 36.606389,
    "lng": 127.54,
    "grade": "C"
  },
  {
    "managementNo": "4311100145",
    "steepSlopeName": "충북 청주 월오 N4지구",
    "implementationOffice": "청주시",
    "managementTypeCode": "지자체(시도)",
    "departmentName": "",
    "province": "충청북도",
    "city": "청주시 상당구",
    "district": "월오동",
    "detailAddress": " ",
    "mainLotNumber": "51",
    "subLotNumber": "17",
    "lat": 36.606111,
    "lng": 127.540833,
    "grade": "C"
  },
  {
    "managementNo": "4311100146",
    "steepSlopeName": "충북 청주 월오 N5지구",
    "implementationOffice": "청주시",
    "managementTypeCode": "지자체(시도)",
    "departmentName": "",
    "province": "충청북도",
    "city": "청주시 상당구",
    "district": "월오동",
    "detailAddress": " ",
    "mainLotNumber": "51",
    "subLotNumber": "17",
    "lat": 36.607222,
    "lng": 127.541667,
    "grade": "B"
  },
  {
    "managementNo": "4311100147",
    "steepSlopeName": "충북 청주 월오 N1지구",
    "implementationOffice": "청주시",
    "managementTypeCode": "지자체(시도)",
    "departmentName": "",
    "province": "충청북도",
    "city": "청주시 상당구",
    "district": "월오동",
    "detailAddress": " ",
    "mainLotNumber": "49",
    "subLotNumber": "1",
    "lat": 36.608056,
    "lng": 127.545,
    "grade": "B"
  },
  {
    "managementNo": "4311100148",
    "steepSlopeName": "충북 청주 월오 N2지구",
    "implementationOffice": "청주시",
    "managementTypeCode": "지자체(시도)",
    "departmentName": "",
    "province": "충청북도",
    "city": "청주시 상당구",
    "district": "월오동",
    "detailAddress": " ",
    "mainLotNumber": "49",
    "subLotNumber": "1",
    "lat": 36.606389,
    "lng": 127.546111,
    "grade": "C"
  },
  {
    "managementNo": "4311100149",
    "steepSlopeName": "충북 청주 상당 문의 신대 N1지구",
    "implementationOffice": "",
    "managementTypeCode": "지자체(시도)",
    "departmentName": "",
    "province": "충청북도",
    "city": "청주시 상당구",
    "district": "문의면",
    "detailAddress": "신대리 ",
    "mainLotNumber": "19",
    "subLotNumber": "3",
    "lat": 36.466944,
    "lng": 127.492778,
    "grade": "C"
  },
  {
    "managementNo": "4311100150",
    "steepSlopeName": "충북 청주 미원 금관 N12지구",
    "implementationOffice": "",
    "managementTypeCode": "지자체(시도)",
    "departmentName": "",
    "province": "충청북도",
    "city": "청주시 상당구",
    "district": "미원면",
    "detailAddress": "금관리 ",
    "mainLotNumber": "532",
    "subLotNumber": "2",
    "lat": 36.601389,
    "lng": 127.723333,
    "grade": "C"
  },
  {
    "managementNo": "4311100151",
    "steepSlopeName": "충북 청주 미원 금관 N11지구",
    "implementationOffice": "",
    "managementTypeCode": "지자체(시도)",
    "departmentName": "",
    "province": "충청북도",
    "city": "청주시 상당구",
    "district": "미원면",
    "detailAddress": "금관리 ",
    "mainLotNumber": "84",
    "subLotNumber": "7",
    "lat": 36.602222,
    "lng": 127.723611,
    "grade": "C"
  },
  {
    "managementNo": "4311100152",
    "steepSlopeName": "충북 청주 미원 금관 N10지구",
    "implementationOffice": "",
    "managementTypeCode": "지자체(시도)",
    "departmentName": "",
    "province": "충청북도",
    "city": "청주시 상당구",
    "district": "미원면",
    "detailAddress": "금관리 ",
    "mainLotNumber": "94",
    "subLotNumber": "1",
    "lat": 36.609722,
    "lng": 127.721944,
    "grade": "C"
  },
  {
    "managementNo": "4311100153",
    "steepSlopeName": "충북 청주 미원 금관 N9지구",
    "implementationOffice": "",
    "managementTypeCode": "지자체(시도)",
    "departmentName": "",
    "province": "충청북도",
    "city": "청주시 상당구",
    "district": "미원면",
    "detailAddress": "금관리 ",
    "mainLotNumber": "277",
    "subLotNumber": "1",
    "lat": 36.6225,
    "lng": 127.725556,
    "grade": "C"
  },
  {
    "managementNo": "4311100154",
    "steepSlopeName": "충북 청주 미원 금관 N8지구",
    "implementationOffice": "",
    "managementTypeCode": "지자체(시도)",
    "departmentName": "",
    "province": "충청북도",
    "city": "청주시 상당구",
    "district": "미원면",
    "detailAddress": "금관리 ",
    "mainLotNumber": "272",
    "subLotNumber": "1",
    "lat": 36.623056,
    "lng": 127.725278,
    "grade": "C"
  },
  {
    "managementNo": "4311100155",
    "steepSlopeName": "충북 청주 미원 금관 N7지구",
    "implementationOffice": "",
    "managementTypeCode": "지자체(시도)",
    "departmentName": "",
    "province": "충청북도",
    "city": "청주시 상당구",
    "district": "미원면",
    "detailAddress": "금관리 ",
    "mainLotNumber": "272",
    "subLotNumber": "1",
    "lat": 36.623333,
    "lng": 127.725,
    "grade": "C"
  },
  {
    "managementNo": "4311100156",
    "steepSlopeName": "충북 청주 미원 금관 N6지구",
    "implementationOffice": "",
    "managementTypeCode": "지자체(시도)",
    "departmentName": "",
    "province": "충청북도",
    "city": "청주시 상당구",
    "district": "미원면",
    "detailAddress": "금관리 ",
    "mainLotNumber": "45",
    "subLotNumber": "1",
    "lat": 36.627778,
    "lng": 127.725,
    "grade": "C"
  },
  {
    "managementNo": "4311100157",
    "steepSlopeName": "충북 청주 상당 문의 신대 N2지구",
    "implementationOffice": "",
    "managementTypeCode": "지자체(시도)",
    "departmentName": "",
    "province": "충청북도",
    "city": "청주시 상당구",
    "district": "문의면",
    "detailAddress": "신대리 ",
    "mainLotNumber": "117",
    "subLotNumber": "1",
    "lat": 36.468056,
    "lng": 127.492778,
    "grade": "C"
  },
  {
    "managementNo": "4311100158",
    "steepSlopeName": "충북 청주 상당 문의 신대 N3지구",
    "implementationOffice": "",
    "managementTypeCode": "지자체(시도)",
    "departmentName": "",
    "province": "충청북도",
    "city": "청주시 상당구",
    "district": "문의면",
    "detailAddress": "신대리 ",
    "mainLotNumber": "140",
    "subLotNumber": "2",
    "lat": 36.468611,
    "lng": 127.492778,
    "grade": "C"
  },
  {
    "managementNo": "4311100159",
    "steepSlopeName": "충북 청주 상당 문의 신대 N4지구",
    "implementationOffice": "",
    "managementTypeCode": "지자체(시도)",
    "departmentName": "",
    "province": "충청북도",
    "city": "청주시 상당구",
    "district": "문의면",
    "detailAddress": "신대리 ",
    "mainLotNumber": "117",
    "subLotNumber": "1",
    "lat": 36.469444,
    "lng": 127.493056,
    "grade": "C"
  },
  {
    "managementNo": "4311100160",
    "steepSlopeName": "충북 청주 상당 문의 신대 N5지구",
    "implementationOffice": "",
    "managementTypeCode": "지자체(시도)",
    "departmentName": "",
    "province": "충청북도",
    "city": "청주시 상당구",
    "district": "문의면",
    "detailAddress": "신대리 ",
    "mainLotNumber": "117",
    "subLotNumber": "1",
    "lat": 36.469722,
    "lng": 127.493611,
    "grade": "C"
  },
  {
    "managementNo": "4311100161",
    "steepSlopeName": "충북 청주 상당 문의 신대 N6지구",
    "implementationOffice": "",
    "managementTypeCode": "지자체(시도)",
    "departmentName": "",
    "province": "충청북도",
    "city": "청주시 상당구",
    "district": "문의면",
    "detailAddress": "신대리 ",
    "mainLotNumber": "69",
    "subLotNumber": "1",
    "lat": 36.470278,
    "lng": 127.494167,
    "grade": "C"
  },
  {
    "managementNo": "4311100162",
    "steepSlopeName": "충북 청주 상당 문의 신대 N7지구",
    "implementationOffice": "",
    "managementTypeCode": "지자체(시도)",
    "departmentName": "",
    "province": "충청북도",
    "city": "청주시 상당구",
    "district": "문의면",
    "detailAddress": "신대리 ",
    "mainLotNumber": "3",
    "subLotNumber": "3",
    "lat": 36.4725,
    "lng": 127.493333,
    "grade": "C"
  },
  {
    "managementNo": "4311100163",
    "steepSlopeName": "충북 청주 상당 문의 신대 N8지구",
    "implementationOffice": "",
    "managementTypeCode": "지자체(시도)",
    "departmentName": "",
    "province": "충청북도",
    "city": "청주시 상당구",
    "district": "문의면",
    "detailAddress": "신대리 ",
    "mainLotNumber": "2",
    "subLotNumber": "12",
    "lat": 36.473333,
    "lng": 127.493056,
    "grade": "C"
  },
  {
    "managementNo": "4311100164",
    "steepSlopeName": "충북 청주 상당 문의 신대 N9지구",
    "implementationOffice": "",
    "managementTypeCode": "지자체(시도)",
    "departmentName": "",
    "province": "충청북도",
    "city": "청주시 상당구",
    "district": "문의면",
    "detailAddress": "신대리 ",
    "mainLotNumber": "2",
    "subLotNumber": "25",
    "lat": 36.475,
    "lng": 127.493056,
    "grade": "D"
  },
  {
    "managementNo": "4311100165",
    "steepSlopeName": "충북 청주 상당 문의 신대 N10지구",
    "implementationOffice": "",
    "managementTypeCode": "지자체(시도)",
    "departmentName": "",
    "province": "충청북도",
    "city": "청주시 상당구",
    "district": "문의면",
    "detailAddress": "신대리 ",
    "mainLotNumber": "2",
    "subLotNumber": "8",
    "lat": 36.476944,
    "lng": 127.493333,
    "grade": "C"
  },
  {
    "managementNo": "4311100166",
    "steepSlopeName": "충북 청주 상당 문의 신대 N11지구",
    "implementationOffice": "",
    "managementTypeCode": "지자체(시도)",
    "departmentName": "",
    "province": "충청북도",
    "city": "청주시 상당구",
    "district": "문의면",
    "detailAddress": "신대리 ",
    "mainLotNumber": "2",
    "subLotNumber": "8",
    "lat": 36.478056,
    "lng": 127.493611,
    "grade": "C"
  },
  {
    "managementNo": "4311100167",
    "steepSlopeName": "충북 청주 미원 금관 N5지구",
    "implementationOffice": "",
    "managementTypeCode": "지자체(시도)",
    "departmentName": "",
    "province": "충청북도",
    "city": "청주시 상당구",
    "district": "미원면",
    "detailAddress": "금관리 ",
    "mainLotNumber": "9",
    "subLotNumber": "2",
    "lat": 36.632222,
    "lng": 127.723889,
    "grade": "C"
  },
  {
    "managementNo": "4311100168",
    "steepSlopeName": "충북 청주 미원 금관 N4지구",
    "implementationOffice": "",
    "managementTypeCode": "지자체(시도)",
    "departmentName": "",
    "province": "충청북도",
    "city": "청주시 상당구",
    "district": "미원면",
    "detailAddress": "금관리 ",
    "mainLotNumber": "9",
    "subLotNumber": "2",
    "lat": 36.632778,
    "lng": 127.724444,
    "grade": "C"
  },
  {
    "managementNo": "4311100169",
    "steepSlopeName": "충북 청주 상당 가덕 상야 N1지구",
    "implementationOffice": "",
    "managementTypeCode": "지자체(시도)",
    "departmentName": "",
    "province": "충청북도",
    "city": "청주시 상당구",
    "district": "가덕면",
    "detailAddress": "상야리 ",
    "mainLotNumber": "48",
    "subLotNumber": "1",
    "lat": 36.582222,
    "lng": 127.576944,
    "grade": "C"
  },
  {
    "managementNo": "4311100170",
    "steepSlopeName": "충북 청주 상당 낭성 인경 N1지구",
    "implementationOffice": "",
    "managementTypeCode": "지자체(시도)",
    "departmentName": "",
    "province": "충청북도",
    "city": "청주시 상당구",
    "district": "낭성면",
    "detailAddress": "인경리 ",
    "mainLotNumber": "78",
    "subLotNumber": "8",
    "lat": 36.671111,
    "lng": 127.590556,
    "grade": "B"
  },
  {
    "managementNo": "4311100171",
    "steepSlopeName": "충북 청주 문의 품곡 N1지구",
    "implementationOffice": "",
    "managementTypeCode": "지자체(시도)",
    "departmentName": "",
    "province": "충청북도",
    "city": "청주시 상당구",
    "district": "문의면",
    "detailAddress": "품곡리 ",
    "mainLotNumber": "32",
    "subLotNumber": "1",
    "lat": 36.502778,
    "lng": 127.472222,
    "grade": "C"
  },
  {
    "managementNo": "4311100172",
    "steepSlopeName": "충북 청주 문의 품곡 N2지구",
    "implementationOffice": "",
    "managementTypeCode": "지자체(시도)",
    "departmentName": "",
    "province": "충청북도",
    "city": "청주시 상당구",
    "district": "문의면",
    "detailAddress": "품곡리 ",
    "mainLotNumber": "32",
    "subLotNumber": "1",
    "lat": 36.501667,
    "lng": 127.472778,
    "grade": "B"
  },
  {
    "managementNo": "4311100173",
    "steepSlopeName": "충북 청주 문의 품곡 N3지구",
    "implementationOffice": "",
    "managementTypeCode": "지자체(시도)",
    "departmentName": "",
    "province": "충청북도",
    "city": "청주시 상당구",
    "district": "문의면",
    "detailAddress": "품곡리 ",
    "mainLotNumber": "82",
    "subLotNumber": "2",
    "lat": 36.500833,
    "lng": 127.474722,
    "grade": "B"
  },
  {
    "managementNo": "4311100174",
    "steepSlopeName": "충북 청주 문의 품곡 N4지구",
    "implementationOffice": "",
    "managementTypeCode": "지자체(시도)",
    "departmentName": "",
    "province": "충청북도",
    "city": "청주시 상당구",
    "district": "문의면",
    "detailAddress": "품곡리 ",
    "mainLotNumber": "82",
    "subLotNumber": "2",
    "lat": 36.500556,
    "lng": 127.474444,
    "grade": "C"
  },
  {
    "managementNo": "4311100175",
    "steepSlopeName": "충북 청주 문의 품곡 N5지구",
    "implementationOffice": "",
    "managementTypeCode": "지자체(시도)",
    "departmentName": "",
    "province": "충청북도",
    "city": "청주시 상당구",
    "district": "문의면",
    "detailAddress": "품곡리 ",
    "mainLotNumber": "19",
    "subLotNumber": "8",
    "lat": 36.500556,
    "lng": 127.476389,
    "grade": "B"
  },
  {
    "managementNo": "4311100176",
    "steepSlopeName": "충북 청주 문의 품곡 N6지구",
    "implementationOffice": "",
    "managementTypeCode": "지자체(시도)",
    "departmentName": "",
    "province": "충청북도",
    "city": "청주시 상당구",
    "district": "문의면",
    "detailAddress": "품곡리 ",
    "mainLotNumber": "19",
    "subLotNumber": "8",
    "lat": 36.500833,
    "lng": 127.4775,
    "grade": "C"
  },
  {
    "managementNo": "4311100177",
    "steepSlopeName": "충북 청주 문의 품곡 N7지구",
    "implementationOffice": "",
    "managementTypeCode": "지자체(시도)",
    "departmentName": "",
    "province": "충청북도",
    "city": "청주시 상당구",
    "district": "문의면",
    "detailAddress": "품곡리 ",
    "mainLotNumber": "20",
    "subLotNumber": "1",
    "lat": 36.501111,
    "lng": 127.478611,
    "grade": "D"
  },
  {
    "managementNo": "4311100178",
    "steepSlopeName": "충북 청주 문의 품곡 N8지구",
    "implementationOffice": "",
    "managementTypeCode": "지자체(시도)",
    "departmentName": "",
    "province": "충청북도",
    "city": "청주시 상당구",
    "district": "문의면",
    "detailAddress": "품곡리 ",
    "mainLotNumber": "20",
    "subLotNumber": "1",
    "lat": 36.501389,
    "lng": 127.479167,
    "grade": "C"
  },
  {
    "managementNo": "4311100179",
    "steepSlopeName": "충북 청주 미원 금관 N3지구",
    "implementationOffice": "",
    "managementTypeCode": "지자체(시도)",
    "departmentName": "",
    "province": "충청북도",
    "city": "청주시 상당구",
    "district": "미원면",
    "detailAddress": "금관리 ",
    "mainLotNumber": "9",
    "subLotNumber": "2",
    "lat": 36.633333,
    "lng": 127.724722,
    "grade": "D"
  },
  {
    "managementNo": "4311100180",
    "steepSlopeName": "충북 청주 미원 금관 N2지구",
    "implementationOffice": "",
    "managementTypeCode": "지자체(시도)",
    "departmentName": "",
    "province": "충청북도",
    "city": "청주시 상당구",
    "district": "미원면",
    "detailAddress": "금관리 ",
    "mainLotNumber": "9",
    "subLotNumber": "1",
    "lat": 36.635833,
    "lng": 127.725278,
    "grade": "C"
  },
  {
    "managementNo": "4311100181",
    "steepSlopeName": "충북 청주 미원 금관 N1지구",
    "implementationOffice": "",
    "managementTypeCode": "지자체(시도)",
    "departmentName": "",
    "province": "충청북도",
    "city": "청주시 상당구",
    "district": "미원면",
    "detailAddress": "금관리 ",
    "mainLotNumber": "17",
    "subLotNumber": "1",
    "lat": 36.646944,
    "lng": 127.724444,
    "grade": "C"
  },
  {
    "managementNo": "4311100182",
    "steepSlopeName": "충북 청주 가덕 한계 N6지구",
    "implementationOffice": "",
    "managementTypeCode": "지자체(시도)",
    "departmentName": "",
    "province": "충청북도",
    "city": "청주시 상당구",
    "district": "가덕면",
    "detailAddress": "한계리 ",
    "mainLotNumber": "393",
    "subLotNumber": "2",
    "lat": 36.606944,
    "lng": 127.545833,
    "grade": "D"
  },
  {
    "managementNo": "4311100183",
    "steepSlopeName": "충북 청주 문의 품곡 N12지구",
    "implementationOffice": "",
    "managementTypeCode": "지자체(시도)",
    "departmentName": "",
    "province": "충청북도",
    "city": "청주시 상당구",
    "district": "문의면",
    "detailAddress": "품곡리 ",
    "mainLotNumber": "19",
    "subLotNumber": "8",
    "lat": 36.502778,
    "lng": 127.482778,
    "grade": "C"
  },
  {
    "managementNo": "4311100184",
    "steepSlopeName": "충북 청주 문의 품곡 N11지구",
    "implementationOffice": "",
    "managementTypeCode": "지자체(시도)",
    "departmentName": "",
    "province": "충청북도",
    "city": "청주시 상당구",
    "district": "문의면",
    "detailAddress": "품곡리 ",
    "mainLotNumber": "19",
    "subLotNumber": "8",
    "lat": 36.502778,
    "lng": 127.481389,
    "grade": "C"
  },
  {
    "managementNo": "4311100185",
    "steepSlopeName": "충북 청주 문의 품곡 N10지구",
    "implementationOffice": "",
    "managementTypeCode": "지자체(시도)",
    "departmentName": "",
    "province": "충청북도",
    "city": "청주시 상당구",
    "district": "문의면",
    "detailAddress": "품곡리 ",
    "mainLotNumber": "19",
    "subLotNumber": "8",
    "lat": 36.5025,
    "lng": 127.480556,
    "grade": "C"
  },
  {
    "managementNo": "4311100186",
    "steepSlopeName": "충북 청주 문의 품곡 N9지구",
    "implementationOffice": "",
    "managementTypeCode": "지자체(시도)",
    "departmentName": "",
    "province": "충청북도",
    "city": "청주시 상당구",
    "district": "문의면",
    "detailAddress": "품곡리 ",
    "mainLotNumber": "19",
    "subLotNumber": "8",
    "lat": 36.501944,
    "lng": 127.479722,
    "grade": "C"
  },
  {
    "managementNo": "4311200002",
    "steepSlopeName": "등배",
    "implementationOffice": "지자체",
    "managementTypeCode": "지자체(시도)",
    "departmentName": "청주시 건축디자인과",
    "province": "충청북도",
    "city": "청주시 서원구",
    "district": "남이면",
    "detailAddress": "부용외천리 ",
    "mainLotNumber": "1063",
    "subLotNumber": "1",
    "lat": 36.534665,
    "lng": 127.408043,
    "grade": "B"
  },
  {
    "managementNo": "4311200003",
    "steepSlopeName": "사창1",
    "implementationOffice": "학교",
    "managementTypeCode": "지자체(시도)",
    "departmentName": "청주시교육지원청",
    "province": "충청북도",
    "city": "청주시 서원구",
    "district": "사창동",
    "detailAddress": " 중앙여고 급식소 배후사면",
    "mainLotNumber": "227",
    "subLotNumber": "",
    "lat": 36.637651,
    "lng": 127.463643,
    "grade": "A"
  },
  {
    "managementNo": "4311200004",
    "steepSlopeName": "사직1",
    "implementationOffice": "지자체",
    "managementTypeCode": "지자체(시도)",
    "departmentName": "공원관리과",
    "province": "충청북도",
    "city": "청주시 서원구",
    "district": "사직동",
    "detailAddress": " 사직2공원 내 급경사지",
    "mainLotNumber": "126",
    "subLotNumber": "20",
    "lat": 36.635025,
    "lng": 127.472515,
    "grade": "C"
  },
  {
    "managementNo": "4311200005",
    "steepSlopeName": "가좌2",
    "implementationOffice": "지자체",
    "managementTypeCode": "지자체(시도)",
    "departmentName": "건축디자인과",
    "province": "충청북도",
    "city": "청주시 서원구",
    "district": "남이면",
    "detailAddress": "가좌리 교회 하부 인공 쌓기비탈면",
    "mainLotNumber": "86",
    "subLotNumber": "2",
    "lat": 36.564017,
    "lng": 127.462837,
    "grade": "C"
  },
  {
    "managementNo": "4311200006",
    "steepSlopeName": "가좌3",
    "implementationOffice": "개인",
    "managementTypeCode": "기타(개인,기업)",
    "departmentName": "건축디자인과",
    "province": "충청북도",
    "city": "청주시 서원구",
    "district": "남이면",
    "detailAddress": "가좌리 교회 부지 내 공터 인접 혼합비탈면",
    "mainLotNumber": "86",
    "subLotNumber": "",
    "lat": 36.563889,
    "lng": 127.4625,
    "grade": "C"
  },
  {
    "managementNo": "4311200007",
    "steepSlopeName": "가좌4",
    "implementationOffice": "지자체",
    "managementTypeCode": "지자체(시도)",
    "departmentName": "서원구 건설과",
    "province": "충청북도",
    "city": "청주시 서원구",
    "district": "남이면",
    "detailAddress": "가좌리 ",
    "mainLotNumber": "165",
    "subLotNumber": "8",
    "lat": 36.564931,
    "lng": 127.463325,
    "grade": "B"
  },
  {
    "managementNo": "4311200008",
    "steepSlopeName": "척산3",
    "implementationOffice": "청주시",
    "managementTypeCode": "지자체(시도)",
    "departmentName": "서원구 건설과",
    "province": "충청북도",
    "city": "청주시 서원구",
    "district": "남이면",
    "detailAddress": "척산리 도로 깎기비탈면(하부에 낙석방지옹벽 및 측구 설치된 상태)",
    "mainLotNumber": "20",
    "subLotNumber": "",
    "lat": 36.558056,
    "lng": 127.4625,
    "grade": "C"
  },
  {
    "managementNo": "4311200009",
    "steepSlopeName": "문동1",
    "implementationOffice": "지자체",
    "managementTypeCode": "지자체(시도)",
    "departmentName": "서원구 건설과",
    "province": "충청북도",
    "city": "청주시 서원구",
    "district": "남이면",
    "detailAddress": "문동리 도로 조성 시 형성된 깎기 암반비탈면(하부에 측구 설치된 상태)",
    "mainLotNumber": "55",
    "subLotNumber": "",
    "lat": 36.553483,
    "lng": 127.47015,
    "grade": "C"
  },
  {
    "managementNo": "4311200010",
    "steepSlopeName": "하석4",
    "implementationOffice": "지자체",
    "managementTypeCode": "지자체(시도)",
    "departmentName": "서원구 건설과",
    "province": "충청북도",
    "city": "청주시 서원구",
    "district": "현도면",
    "detailAddress": "하석리 지방도32호선 깎기비탈면(도도로관리사업소에서 청주시 이관절차 진행중)",
    "mainLotNumber": "49",
    "subLotNumber": "1",
    "lat": 36.477033,
    "lng": 127.472006,
    "grade": "C"
  },
  {
    "managementNo": "4311200011",
    "steepSlopeName": "충청 경부고속69",
    "implementationOffice": "충청본부",
    "managementTypeCode": "국가철도공단",
    "departmentName": "국가철도공단",
    "province": "충청북도",
    "city": "청주시 서원구",
    "district": "남이면",
    "detailAddress": "구미리 ",
    "mainLotNumber": "20",
    "subLotNumber": "1",
    "lat": 36.486702,
    "lng": 127.407142,
    "grade": "B"
  },
  {
    "managementNo": "4311200012",
    "steepSlopeName": "충청 경부고속70",
    "implementationOffice": "충청본부",
    "managementTypeCode": "국가철도공단",
    "departmentName": "국가철도공단",
    "province": "충청북도",
    "city": "청주시 서원구",
    "district": "남이면",
    "detailAddress": "구미리 ",
    "mainLotNumber": "20",
    "subLotNumber": "1",
    "lat": 36.478851,
    "lng": 127.409431,
    "grade": "A"
  },
  {
    "managementNo": "4311200013",
    "steepSlopeName": "충청 경부고속71",
    "implementationOffice": "충청본부",
    "managementTypeCode": "국가철도공단",
    "departmentName": "국가철도공단",
    "province": "충청북도",
    "city": "청주시 서원구",
    "district": "남이면",
    "detailAddress": "비룡리 ",
    "mainLotNumber": "21",
    "subLotNumber": "2",
    "lat": 36.473179,
    "lng": 127.411051,
    "grade": "B"
  },
  {
    "managementNo": "4311200019",
    "steepSlopeName": "충청 경부고속75",
    "implementationOffice": "충청본부",
    "managementTypeCode": "국가철도공단",
    "departmentName": "국가철도공단",
    "province": "충청북도",
    "city": "청주시 서원구",
    "district": "현도면",
    "detailAddress": "시목리 ",
    "mainLotNumber": "482",
    "subLotNumber": "1",
    "lat": 36.463918,
    "lng": 127.413774,
    "grade": "B"
  },
  {
    "managementNo": "4311200020",
    "steepSlopeName": "충청 경부고속76",
    "implementationOffice": "충청본부",
    "managementTypeCode": "국가철도공단",
    "departmentName": "국가철도공단",
    "province": "충청북도",
    "city": "청주시 서원구",
    "district": "현도면",
    "detailAddress": "중척리 ",
    "mainLotNumber": "29",
    "subLotNumber": "4",
    "lat": 36.465633,
    "lng": 127.413274,
    "grade": "B"
  },
  {
    "managementNo": "4311200021",
    "steepSlopeName": "충북 청주 남이 부용외천 N1지구",
    "implementationOffice": "개인",
    "managementTypeCode": "기타(개인,기업)",
    "departmentName": "",
    "province": "충청북도",
    "city": "청주시 서원구",
    "district": "남이면",
    "detailAddress": "부용외천리 ",
    "mainLotNumber": "155",
    "subLotNumber": "13",
    "lat": 36.532222,
    "lng": 127.412778,
    "grade": "C"
  },
  {
    "managementNo": "4311200022",
    "steepSlopeName": "충북 청주 남이 부용외천 N5지구",
    "implementationOffice": "개인",
    "managementTypeCode": "기타(개인,기업)",
    "departmentName": "",
    "province": "충청북도",
    "city": "청주시 서원구",
    "district": "남이면",
    "detailAddress": "부용외천리 ",
    "mainLotNumber": "128",
    "subLotNumber": "11",
    "lat": 36.530833,
    "lng": 127.420833,
    "grade": "C"
  },
  {
    "managementNo": "4311200023",
    "steepSlopeName": "충북 청주 남이 부용외천 N2지구",
    "implementationOffice": "개인",
    "managementTypeCode": "기타(개인,기업)",
    "departmentName": "",
    "province": "충청북도",
    "city": "청주시 서원구",
    "district": "남이면",
    "detailAddress": "부용외천리 ",
    "mainLotNumber": "201",
    "subLotNumber": "6",
    "lat": 36.542222,
    "lng": 127.408611,
    "grade": "C"
  },
  {
    "managementNo": "4311200024",
    "steepSlopeName": "충북 청주 남이 부용외천 N3지구",
    "implementationOffice": "청주시",
    "managementTypeCode": "지자체(시도)",
    "departmentName": "",
    "province": "충청북도",
    "city": "청주시 서원구",
    "district": "남이면",
    "detailAddress": "부용외천리 ",
    "mainLotNumber": "1115",
    "subLotNumber": "",
    "lat": 36.5425,
    "lng": 127.424722,
    "grade": "C"
  },
  {
    "managementNo": "4311200025",
    "steepSlopeName": "충북 청주 남이 부용외천 N4지구",
    "implementationOffice": "개인",
    "managementTypeCode": "기타(개인,기업)",
    "departmentName": "",
    "province": "충청북도",
    "city": "청주시 서원구",
    "district": "남이면",
    "detailAddress": "부용외천리 ",
    "mainLotNumber": "1115",
    "subLotNumber": "2",
    "lat": 36.542222,
    "lng": 127.425278,
    "grade": "C"
  },
  {
    "managementNo": "4311200026",
    "steepSlopeName": "충북 청주 남이 척산 N1지구",
    "implementationOffice": "청주시",
    "managementTypeCode": "지자체(시도)",
    "departmentName": "",
    "province": "충청북도",
    "city": "청주시 서원구",
    "district": "남이면",
    "detailAddress": "척산리 ",
    "mainLotNumber": "102",
    "subLotNumber": "4",
    "lat": 36.551389,
    "lng": 127.455278,
    "grade": "C"
  },
  {
    "managementNo": "4311200027",
    "steepSlopeName": "충북 청주 남이 척산 N2지구",
    "implementationOffice": "청주시",
    "managementTypeCode": "지자체(시도)",
    "departmentName": "",
    "province": "충청북도",
    "city": "청주시 서원구",
    "district": "남이면",
    "detailAddress": "척산리 ",
    "mainLotNumber": "102",
    "subLotNumber": "5",
    "lat": 36.5525,
    "lng": 127.456944,
    "grade": "C"
  },
  {
    "managementNo": "4311200028",
    "steepSlopeName": "충북 청주 남이 척산 N3지구",
    "implementationOffice": "개인",
    "managementTypeCode": "기타(개인,기업)",
    "departmentName": "",
    "province": "충청북도",
    "city": "청주시 서원구",
    "district": "남이면",
    "detailAddress": "척산리 ",
    "mainLotNumber": "103",
    "subLotNumber": "",
    "lat": 36.553056,
    "lng": 127.455278,
    "grade": "C"
  },
  {
    "managementNo": "4311200029",
    "steepSlopeName": "충북 청주 현도 노산 N1지구",
    "implementationOffice": "청주시",
    "managementTypeCode": "지자체(시도)",
    "departmentName": "",
    "province": "충청북도",
    "city": "청주시 서원구",
    "district": "현도면",
    "detailAddress": "노산리 ",
    "mainLotNumber": "20",
    "subLotNumber": "20",
    "lat": 36.459722,
    "lng": 127.456667,
    "grade": "B"
  },
  {
    "managementNo": "4311200030",
    "steepSlopeName": "충북 청주 현도 상삼 N1지구",
    "implementationOffice": "개인",
    "managementTypeCode": "기타(개인,기업)",
    "departmentName": "",
    "province": "충청북도",
    "city": "청주시 서원구",
    "district": "현도면",
    "detailAddress": "상삼리 ",
    "mainLotNumber": "202",
    "subLotNumber": "",
    "lat": 36.525833,
    "lng": 127.41,
    "grade": "B"
  },
  {
    "managementNo": "4311200031",
    "steepSlopeName": "충북 청주 현도 상삼 N2지구",
    "implementationOffice": "개인",
    "managementTypeCode": "기타(개인,기업)",
    "departmentName": "",
    "province": "충청북도",
    "city": "청주시 서원구",
    "district": "현도면",
    "detailAddress": "상삼리 ",
    "mainLotNumber": "210",
    "subLotNumber": "3",
    "lat": 36.525556,
    "lng": 127.409167,
    "grade": "C"
  },
  {
    "managementNo": "4311200032",
    "steepSlopeName": "충북 청주 현도 상삼 N3지구",
    "implementationOffice": "개인",
    "managementTypeCode": "기타(개인,기업)",
    "departmentName": "",
    "province": "충청북도",
    "city": "청주시 서원구",
    "district": "현도면",
    "detailAddress": "상삼리 ",
    "mainLotNumber": "20",
    "subLotNumber": "1",
    "lat": 36.523889,
    "lng": 127.418889,
    "grade": "B"
  },
  {
    "managementNo": "4311200033",
    "steepSlopeName": "충북 청주 현도 하석 N1지구",
    "implementationOffice": "청주시",
    "managementTypeCode": "지자체(시도)",
    "departmentName": "",
    "province": "충청북도",
    "city": "청주시 서원구",
    "district": "현도면",
    "detailAddress": "하석리 ",
    "mainLotNumber": "74",
    "subLotNumber": "",
    "lat": 36.471944,
    "lng": 127.466944,
    "grade": "B"
  },
  {
    "managementNo": "4311200034",
    "steepSlopeName": "충북 청주 현도 하석 N2지구",
    "implementationOffice": "청주시",
    "managementTypeCode": "지자체(시도)",
    "departmentName": "",
    "province": "충청북도",
    "city": "청주시 서원구",
    "district": "현도면",
    "detailAddress": "하석리 ",
    "mainLotNumber": "74",
    "subLotNumber": "",
    "lat": 36.474444,
    "lng": 127.472222,
    "grade": "B"
  },
  {
    "managementNo": "4311200035",
    "steepSlopeName": "충북 청주 현도 하석 N3지구",
    "implementationOffice": "청주시",
    "managementTypeCode": "지자체(시도)",
    "departmentName": "",
    "province": "충청북도",
    "city": "청주시 서원구",
    "district": "현도면",
    "detailAddress": "하석리 ",
    "mainLotNumber": "97",
    "subLotNumber": "3",
    "lat": 36.458056,
    "lng": 127.457222,
    "grade": "C"
  },
  {
    "managementNo": "4311200036",
    "steepSlopeName": "충북 청주 현도 하석 N4지구",
    "implementationOffice": "청주시",
    "managementTypeCode": "지자체(시도)",
    "departmentName": "",
    "province": "충청북도",
    "city": "청주시 서원구",
    "district": "현도면",
    "detailAddress": "하석리 ",
    "mainLotNumber": "49",
    "subLotNumber": "10",
    "lat": 36.476389,
    "lng": 127.474444,
    "grade": "C"
  },
  {
    "managementNo": "4311200037",
    "steepSlopeName": "충북 청주 현도 하석 N5지구",
    "implementationOffice": "청주시",
    "managementTypeCode": "지자체(시도)",
    "departmentName": "",
    "province": "충청북도",
    "city": "청주시 서원구",
    "district": "현도면",
    "detailAddress": "하석리 ",
    "mainLotNumber": "49",
    "subLotNumber": "10",
    "lat": 36.475,
    "lng": 127.471111,
    "grade": "B"
  },
  {
    "managementNo": "4311200038",
    "steepSlopeName": "충북 청주 현도 하석 N6지구",
    "implementationOffice": "청주시",
    "managementTypeCode": "지자체(시도)",
    "departmentName": "",
    "province": "충청북도",
    "city": "청주시 서원구",
    "district": "현도면",
    "detailAddress": "하석리 ",
    "mainLotNumber": "66",
    "subLotNumber": "",
    "lat": 36.474722,
    "lng": 127.471944,
    "grade": "C"
  },
  {
    "managementNo": "4311200039",
    "steepSlopeName": "충북 청주 현도 하석 N7지구",
    "implementationOffice": "청주시",
    "managementTypeCode": "지자체(시도)",
    "departmentName": "",
    "province": "충청북도",
    "city": "청주시 서원구",
    "district": "현도면",
    "detailAddress": "하석리 ",
    "mainLotNumber": "74",
    "subLotNumber": "",
    "lat": 36.474722,
    "lng": 127.471944,
    "grade": "B"
  },
  {
    "managementNo": "4311200040",
    "steepSlopeName": "충북 청주 현도 하석 N9지구",
    "implementationOffice": "청주시",
    "managementTypeCode": "지자체(시도)",
    "departmentName": "",
    "province": "충청북도",
    "city": "청주시 서원구",
    "district": "현도면",
    "detailAddress": "하석리 ",
    "mainLotNumber": "74",
    "subLotNumber": "3",
    "lat": 36.466389,
    "lng": 127.463611,
    "grade": "C"
  },
  {
    "managementNo": "4311200041",
    "steepSlopeName": "충북 청주 현도 하석 N10지구",
    "implementationOffice": "청주시",
    "managementTypeCode": "지자체(시도)",
    "departmentName": "",
    "province": "충청북도",
    "city": "청주시 서원구",
    "district": "현도면",
    "detailAddress": "하석리 ",
    "mainLotNumber": "74",
    "subLotNumber": "3",
    "lat": 36.464722,
    "lng": 127.465556,
    "grade": "D"
  },
  {
    "managementNo": "4311200042",
    "steepSlopeName": "충북 청주 현도 하석 N12지구",
    "implementationOffice": "청주시",
    "managementTypeCode": "지자체(시도)",
    "departmentName": "",
    "province": "충청북도",
    "city": "청주시 서원구",
    "district": "현도면",
    "detailAddress": "하석리 ",
    "mainLotNumber": "49",
    "subLotNumber": "5",
    "lat": 36.476111,
    "lng": 127.470556,
    "grade": "C"
  },
  {
    "managementNo": "4311200043",
    "steepSlopeName": "충북 청주 현도 하석 N8지구",
    "implementationOffice": "청주시",
    "managementTypeCode": "지자체(시도)",
    "departmentName": "",
    "province": "충청북도",
    "city": "청주시 서원구",
    "district": "현도면",
    "detailAddress": "하석리 ",
    "mainLotNumber": "49",
    "subLotNumber": "7",
    "lat": 36.4789,
    "lng": 127.4746,
    "grade": "B"
  },
  {
    "managementNo": "4311200044",
    "steepSlopeName": "충북 청주 현도 하석 N11지구",
    "implementationOffice": "청주시",
    "managementTypeCode": "지자체(시도)",
    "departmentName": "",
    "province": "충청북도",
    "city": "청주시 서원구",
    "district": "현도면",
    "detailAddress": "하석리 ",
    "mainLotNumber": "51",
    "subLotNumber": "1",
    "lat": 36.4788,
    "lng": 127.4759,
    "grade": "C"
  },
  {
    "managementNo": "4311300001",
    "steepSlopeName": "성화 휴먼시아",
    "implementationOffice": "지자체",
    "managementTypeCode": "지자체(시도)",
    "departmentName": "공원관리과",
    "province": "충청북도",
    "city": "청주시 서원구",
    "district": "성화동",
    "detailAddress": " 휴먼시아 2차",
    "mainLotNumber": "655",
    "subLotNumber": "",
    "lat": 36.613142,
    "lng": 127.463439,
    "grade": "C"
  },
  {
    "managementNo": "4311300002",
    "steepSlopeName": "성화중학교",
    "implementationOffice": "지자체",
    "managementTypeCode": "지자체(시도)",
    "departmentName": "공원관리과",
    "province": "충청북도",
    "city": "청주시 서원구",
    "district": "성화동",
    "detailAddress": " 성화중학교 뒤편",
    "mainLotNumber": "655",
    "subLotNumber": "",
    "lat": 36.61555,
    "lng": 127.462258,
    "grade": "C"
  },
  {
    "managementNo": "4311300003",
    "steepSlopeName": "성화초교",
    "implementationOffice": "지자체",
    "managementTypeCode": "지자체(시도)",
    "departmentName": "공원관리과",
    "province": "충청북도",
    "city": "청주시 서원구",
    "district": "성화동",
    "detailAddress": " 성화초교 뒤편",
    "mainLotNumber": "630",
    "subLotNumber": "",
    "lat": 36.612844,
    "lng": 127.457092,
    "grade": "C"
  },
  {
    "managementNo": "4311300004",
    "steepSlopeName": "산남법원",
    "implementationOffice": "지자체",
    "managementTypeCode": "지자체(시도)",
    "departmentName": "공원관리과",
    "province": "충청북도",
    "city": "청주시 서원구",
    "district": "산남동",
    "detailAddress": " 산남동 법원 뒤쪽",
    "mainLotNumber": "351",
    "subLotNumber": "",
    "lat": 36.6125,
    "lng": 127.471111,
    "grade": "B"
  },
  {
    "managementNo": "4311300005",
    "steepSlopeName": "산남검찰청",
    "implementationOffice": "지자체",
    "managementTypeCode": "지자체(시도)",
    "departmentName": "공원관리과",
    "province": "충청북도",
    "city": "청주시 서원구",
    "district": "산남동",
    "detailAddress": " 산남동 검찰청 뒤쪽",
    "mainLotNumber": "352",
    "subLotNumber": "",
    "lat": 36.6125,
    "lng": 127.47,
    "grade": "B"
  },
  {
    "managementNo": "4311300006",
    "steepSlopeName": "산남유승",
    "implementationOffice": "지자체",
    "managementTypeCode": "지자체(시도)",
    "departmentName": "공원관리과",
    "province": "충청북도",
    "city": "청주시 서원구",
    "district": "산남동",
    "detailAddress": " 유승한내들 뒤쪽",
    "mainLotNumber": "980",
    "subLotNumber": "",
    "lat": 36.611667,
    "lng": 127.465278,
    "grade": "C"
  },
  {
    "managementNo": "4311300007",
    "steepSlopeName": "산남영조",
    "implementationOffice": "지자체",
    "managementTypeCode": "지자체(시도)",
    "departmentName": "공원관리과",
    "province": "충청북도",
    "city": "청주시 서원구",
    "district": "산남동",
    "detailAddress": " 산남퀸덤 뒤쪽",
    "mainLotNumber": "980",
    "subLotNumber": "",
    "lat": 36.610556,
    "lng": 127.464167,
    "grade": "C"
  },
  {
    "managementNo": "4311300008",
    "steepSlopeName": "산남초교",
    "implementationOffice": "지자체",
    "managementTypeCode": "지자체(시도)",
    "departmentName": "공원관리과",
    "province": "충청북도",
    "city": "청주시 서원구",
    "district": "산남동",
    "detailAddress": " 산남초교",
    "mainLotNumber": "980",
    "subLotNumber": "",
    "lat": 36.61,
    "lng": 127.463611,
    "grade": "C"
  },
  {
    "managementNo": "4311300009",
    "steepSlopeName": "산남대원",
    "implementationOffice": "지자체",
    "managementTypeCode": "지자체(시도)",
    "departmentName": "공원관리과",
    "province": "충청북도",
    "city": "청주시 서원구",
    "district": "산남동",
    "detailAddress": " 대우푸르지오 뒤쪽",
    "mainLotNumber": "980",
    "subLotNumber": "",
    "lat": 36.607778,
    "lng": 127.463333,
    "grade": "C"
  },
  {
    "managementNo": "4311300010",
    "steepSlopeName": "산남대우",
    "implementationOffice": "지자체",
    "managementTypeCode": "지자체(시도)",
    "departmentName": "공원관리과",
    "province": "충청북도",
    "city": "청주시 서원구",
    "district": "산남동",
    "detailAddress": " 대우 A.P.T 뒤쪽",
    "mainLotNumber": "",
    "subLotNumber": "",
    "lat": 36.606111,
    "lng": 127.463611,
    "grade": "C"
  },
  {
    "managementNo": "4311300011",
    "steepSlopeName": "산남푸르지오",
    "implementationOffice": "지자체",
    "managementTypeCode": "지자체(시도)",
    "departmentName": "공원관리과",
    "province": "충청북도",
    "city": "청주시 서원구",
    "district": "산남동",
    "detailAddress": " 푸르지오 105동 뒤쪽",
    "mainLotNumber": "980",
    "subLotNumber": "",
    "lat": 36.605556,
    "lng": 127.466389,
    "grade": "C"
  },
  {
    "managementNo": "4311300012",
    "steepSlopeName": "산남주택가",
    "implementationOffice": "지자체",
    "managementTypeCode": "지자체(시도)",
    "departmentName": "공원관리과",
    "province": "충청북도",
    "city": "청주시 서원구",
    "district": "산남동",
    "detailAddress": " 푸르지오 인근 주택가",
    "mainLotNumber": "980",
    "subLotNumber": "",
    "lat": 36.605,
    "lng": 127.457778,
    "grade": "C"
  },
  {
    "managementNo": "4311300013",
    "steepSlopeName": "산남고교",
    "implementationOffice": "지자체",
    "managementTypeCode": "지자체(시도)",
    "departmentName": "공원관리과",
    "province": "충청북도",
    "city": "청주시 서원구",
    "district": "산남동",
    "detailAddress": " 산남고교 뒤쪽",
    "mainLotNumber": "980",
    "subLotNumber": "",
    "lat": 36.605278,
    "lng": 127.4725,
    "grade": "C"
  },
  {
    "managementNo": "4311300015",
    "steepSlopeName": "산남부영",
    "implementationOffice": "지자체",
    "managementTypeCode": "지자체(시도)",
    "departmentName": "공원관리과",
    "province": "충청북도",
    "city": "청주시 서원구",
    "district": "산남동",
    "detailAddress": " 부영아파트 앞 삼거리",
    "mainLotNumber": "980",
    "subLotNumber": "",
    "lat": 36.603056,
    "lng": 127.473611,
    "grade": "B"
  },
  {
    "managementNo": "4311300016",
    "steepSlopeName": "서현중학교",
    "implementationOffice": "지자체",
    "managementTypeCode": "지자체(시군구)",
    "departmentName": "공원관리과",
    "province": "충청북도",
    "city": "청주시 흥덕구",
    "district": "가경동",
    "detailAddress": " 서현중학교 옆",
    "mainLotNumber": "2067",
    "subLotNumber": "",
    "lat": 36.617786,
    "lng": 127.433339,
    "grade": "B"
  },
  {
    "managementNo": "4311300017",
    "steepSlopeName": "가경공원1",
    "implementationOffice": "지자체",
    "managementTypeCode": "지자체(시도)",
    "departmentName": "공원관리과",
    "province": "충청북도",
    "city": "청주시 흥덕구",
    "district": "가경동",
    "detailAddress": " 하나노인병원 옆-그린공원2",
    "mainLotNumber": "85",
    "subLotNumber": "",
    "lat": 36.631642,
    "lng": 127.430381,
    "grade": "B"
  },
  {
    "managementNo": "4311300018",
    "steepSlopeName": "가경공원2",
    "implementationOffice": "지자체",
    "managementTypeCode": "지자체(시도)",
    "departmentName": "공원관리과",
    "province": "충청북도",
    "city": "청주시 흥덕구",
    "district": "가경동",
    "detailAddress": " 하나노인병원 옆 - 그린공원2",
    "mainLotNumber": "85",
    "subLotNumber": "",
    "lat": 36.618514,
    "lng": 127.433131,
    "grade": "C"
  },
  {
    "managementNo": "4311300019",
    "steepSlopeName": "가경공원3",
    "implementationOffice": "지자체",
    "managementTypeCode": "지자체(시도)",
    "departmentName": "공원관리과",
    "province": "충청북도",
    "city": "청주시 흥덕구",
    "district": "가경동",
    "detailAddress": " 하나노인병원 옆-그린공원3",
    "mainLotNumber": "91",
    "subLotNumber": "7",
    "lat": 36.616267,
    "lng": 127.434453,
    "grade": "B"
  },
  {
    "managementNo": "4311300020",
    "steepSlopeName": "가경공원4",
    "implementationOffice": "지자체",
    "managementTypeCode": "지자체(시도)",
    "departmentName": "공원관리과",
    "province": "충청북도",
    "city": "청주시 흥덕구",
    "district": "가경동",
    "detailAddress": " 하나노인병원 옆-그린공원2",
    "mainLotNumber": "85",
    "subLotNumber": "3",
    "lat": 36.616267,
    "lng": 127.434453,
    "grade": "B"
  },
  {
    "managementNo": "4311300021",
    "steepSlopeName": "가경공원5",
    "implementationOffice": "지자체",
    "managementTypeCode": "지자체(시도)",
    "departmentName": "공원관리과",
    "province": "충청북도",
    "city": "청주시 흥덕구",
    "district": "가경동",
    "detailAddress": " 하나노인병원 옆-그린공원3",
    "mainLotNumber": "85",
    "subLotNumber": "3",
    "lat": 36.614906,
    "lng": 127.429197,
    "grade": "B"
  },
  {
    "managementNo": "4311300022",
    "steepSlopeName": "강서1-1",
    "implementationOffice": "지자체",
    "managementTypeCode": "지자체(시도)",
    "departmentName": "흥덕구 건축과",
    "province": "충청북도",
    "city": "청주시 흥덕구",
    "district": "강서동",
    "detailAddress": " 호암리",
    "mainLotNumber": "55",
    "subLotNumber": "",
    "lat": 36.61105,
    "lng": 127.423383,
    "grade": "C"
  },
  {
    "managementNo": "4311300023",
    "steepSlopeName": "강서1-2",
    "implementationOffice": "지자체",
    "managementTypeCode": "지자체(시도)",
    "departmentName": "흥덕구 건축과",
    "province": "충청북도",
    "city": "청주시 흥덕구",
    "district": "강서동",
    "detailAddress": " 호암리",
    "mainLotNumber": "55",
    "subLotNumber": "",
    "lat": 36.61105,
    "lng": 127.423383,
    "grade": "B"
  },
  {
    "managementNo": "4311300024",
    "steepSlopeName": "강서1-3",
    "implementationOffice": "지자체",
    "managementTypeCode": "지자체(시도)",
    "departmentName": "흥덕구 건축과",
    "province": "충청북도",
    "city": "청주시 흥덕구",
    "district": "강서동",
    "detailAddress": " 132-1, 132-8",
    "mainLotNumber": "132",
    "subLotNumber": "1",
    "lat": 36.620158,
    "lng": 127.422821,
    "grade": "C"
  },
  {
    "managementNo": "4311300025",
    "steepSlopeName": "지동",
    "implementationOffice": "지자체",
    "managementTypeCode": "지자체(시도)",
    "departmentName": "흥덕구 건축과",
    "province": "충청북도",
    "city": "청주시 흥덕구",
    "district": "지동동",
    "detailAddress": " ",
    "mainLotNumber": "253",
    "subLotNumber": "2",
    "lat": 36.64355,
    "lng": 127.413589,
    "grade": "B"
  },
  {
    "managementNo": "4311300026",
    "steepSlopeName": "비하효성A",
    "implementationOffice": "지자체",
    "managementTypeCode": "지자체(시도)",
    "departmentName": "공동주택과",
    "province": "충청북도",
    "city": "청주시 흥덕구",
    "district": "비하동",
    "detailAddress": " ",
    "mainLotNumber": "362",
    "subLotNumber": "",
    "lat": 36.638889,
    "lng": 127.422778,
    "grade": "C"
  },
  {
    "managementNo": "4311300027",
    "steepSlopeName": "개신1",
    "implementationOffice": "지자체",
    "managementTypeCode": "지자체(시도)",
    "departmentName": "공동주택과",
    "province": "충청북도",
    "city": "청주시 서원구",
    "district": "개신동",
    "detailAddress": " ",
    "mainLotNumber": "10",
    "subLotNumber": "",
    "lat": 36.625506,
    "lng": 127.469261,
    "grade": "C"
  },
  {
    "managementNo": "4311300028",
    "steepSlopeName": "개신2",
    "implementationOffice": "지자체",
    "managementTypeCode": "지자체(시도)",
    "departmentName": "공동주택과",
    "province": "충청북도",
    "city": "청주시 서원구",
    "district": "개신동",
    "detailAddress": " ",
    "mainLotNumber": "11",
    "subLotNumber": "",
    "lat": 36.625378,
    "lng": 127.466986,
    "grade": "C"
  },
  {
    "managementNo": "4311300030",
    "steepSlopeName": "개신3",
    "implementationOffice": "지자체",
    "managementTypeCode": "지자체(시도)",
    "departmentName": "공동주택과",
    "province": "충청북도",
    "city": "청주시 서원구",
    "district": "개신동",
    "detailAddress": " ",
    "mainLotNumber": "443",
    "subLotNumber": "",
    "lat": 36.605069,
    "lng": 127.4706,
    "grade": "C"
  },
  {
    "managementNo": "4311300031",
    "steepSlopeName": "비하",
    "implementationOffice": "지자체",
    "managementTypeCode": "지자체(시도)",
    "departmentName": "건축디자인과",
    "province": "충청북도",
    "city": "청주시 흥덕구",
    "district": "비하동",
    "detailAddress": " ",
    "mainLotNumber": "515",
    "subLotNumber": "16",
    "lat": 36.6225,
    "lng": 127.418056,
    "grade": "C"
  },
  {
    "managementNo": "4311300032",
    "steepSlopeName": "송정",
    "implementationOffice": "지자체",
    "managementTypeCode": "지자체(시도)",
    "departmentName": "흥덕구 건설과",
    "province": "충청북도",
    "city": "청주시 흥덕구",
    "district": "송정동",
    "detailAddress": " 신흥콘트롤 옆",
    "mainLotNumber": "4",
    "subLotNumber": "1",
    "lat": 36.643619,
    "lng": 127.450011,
    "grade": "C"
  },
  {
    "managementNo": "4311300034",
    "steepSlopeName": "개신4",
    "implementationOffice": "지자체",
    "managementTypeCode": "지자체(시도)",
    "departmentName": "서원구 건설과",
    "province": "충청북도",
    "city": "청주시 서원구",
    "district": "개신동",
    "detailAddress": " ",
    "mainLotNumber": "105",
    "subLotNumber": "12",
    "lat": 36.617592,
    "lng": 127.461522,
    "grade": "B"
  },
  {
    "managementNo": "4311300035",
    "steepSlopeName": "죽림1",
    "implementationOffice": "지자체",
    "managementTypeCode": "지자체(시도)",
    "departmentName": "서원구 건설과",
    "province": "충청북도",
    "city": "청주시 서원구",
    "district": "죽림동",
    "detailAddress": " ",
    "mainLotNumber": "52",
    "subLotNumber": "",
    "lat": 36.608889,
    "lng": 127.441389,
    "grade": "B"
  },
  {
    "managementNo": "4311300036",
    "steepSlopeName": "죽림2",
    "implementationOffice": "지자체",
    "managementTypeCode": "지자체(시도)",
    "departmentName": "서원구 건설과",
    "province": "충청북도",
    "city": "청주시 서원구",
    "district": "죽림동",
    "detailAddress": " ",
    "mainLotNumber": "77",
    "subLotNumber": "10",
    "lat": 36.605278,
    "lng": 127.447222,
    "grade": "B"
  },
  {
    "managementNo": "4311300037",
    "steepSlopeName": "석곡",
    "implementationOffice": "지자체",
    "managementTypeCode": "지자체(시도)",
    "departmentName": "흥덕구 건설과",
    "province": "충청북도",
    "city": "청주시 흥덕구",
    "district": "석곡동",
    "detailAddress": " 산 1.2",
    "mainLotNumber": "",
    "subLotNumber": "",
    "lat": 36.608136,
    "lng": 127.438778,
    "grade": "C"
  },
  {
    "managementNo": "4311300038",
    "steepSlopeName": "장성1",
    "implementationOffice": "지자체",
    "managementTypeCode": "지자체(시도)",
    "departmentName": "서원구 건설과",
    "province": "충청북도",
    "city": "청주시 서원구",
    "district": "장성동",
    "detailAddress": " ",
    "mainLotNumber": "7",
    "subLotNumber": "10",
    "lat": 36.590833,
    "lng": 127.484722,
    "grade": "C"
  },
  {
    "managementNo": "4311300039",
    "steepSlopeName": "장성2",
    "implementationOffice": "지자체",
    "managementTypeCode": "지자체(시도)",
    "departmentName": "서원구 건설과",
    "province": "충청북도",
    "city": "청주시 서원구",
    "district": "장성동",
    "detailAddress": " ",
    "mainLotNumber": "7",
    "subLotNumber": "9",
    "lat": 36.591389,
    "lng": 127.486944,
    "grade": "B"
  },
  {
    "managementNo": "4311300040",
    "steepSlopeName": "모충",
    "implementationOffice": "지자체",
    "managementTypeCode": "지자체(시도)",
    "departmentName": "서원구 건설과",
    "province": "충청북도",
    "city": "청주시 서원구",
    "district": "모충동",
    "detailAddress": " ",
    "mainLotNumber": "61",
    "subLotNumber": "1",
    "lat": 36.619444,
    "lng": 127.481111,
    "grade": "B"
  },